data/STK/Satellite_Satellite_Sensor_Hyperscout2_To_AreaTarget_Europe_Access.csv

"Access","Start Time (UTCG)","Stop Time (UTCG)","Duration (sec)"
1,1 Mar 2023 01:16:11.882,1 Mar 2023 01:22:10.236,358.353
2,1 Mar 2023 08:51:03.135,1 Mar 2023 08:55:52.920,289.785
3,1 Mar 2023 10:21:06.999,1 Mar 2023 10:30:07.263,540.263
4,1 Mar 2023 11:56:07.497,1 Mar 2023 12:02:40.805,393.308
5,1 Mar 2023 23:15:34.343,1 Mar 2023 23:24:36.707,542.364
6,2 Mar 2023 00:49:06.416,2 Mar 2023 00:56:48.577,462.161
7,2 Mar 2023 09:54:46.704,2 Mar 2023 10:03:28.301,521.597
8,2 Mar 2023 11:28:16.627,2 Mar 2023 11:36:38.723,502.096
9,2 Mar 2023 22:49:05.489,2 Mar 2023 22:57:31.922,506.432
10,3 Mar 2023 00:22:17.526,3 Mar 2023 00:30:56.725,519.199
11,3 Mar 2023 09:28:53.055,3 Mar 2023 09:36:40.263,467.208
12,3 Mar 2023 11:01:09.541,3 Mar 2023 11:10:11.047,541.506
13,3 Mar 2023 22:23:00.793,3 Mar 2023 22:29:44.901,404.107
14,3 Mar 2023 23:55:38.441,4 Mar 2023 00:04:38.236,539.795
15,4 Mar 2023 01:29:56.868,4 Mar 2023 01:34:34.161,277.292
16,4 Mar 2023 09:03:28.890,4 Mar 2023 09:09:36.178,367.288
17,4 Mar 2023 10:34:26.481,4 Mar 2023 10:43:28.734,542.253
18,4 Mar 2023 12:10:32.625,4 Mar 2023 12:15:18.646,286.022
19,4 Mar 2023 23:28:54.553,4 Mar 2023 23:37:58.466,543.914
20,5 Mar 2023 01:02:36.434,5 Mar 2023 01:09:33.767,417.333
21,5 Mar 2023 08:39:05.250,5 Mar 2023 08:41:46.310,161.059
22,5 Mar 2023 10:07:53.431,5 Mar 2023 10:16:47.773,534.342
23,5 Mar 2023 11:42:05.128,5 Mar 2023 11:49:44.424,459.296
24,5 Mar 2023 23:02:17.745,5 Mar 2023 23:11:08.642,530.897
25,6 Mar 2023 00:35:40.344,6 Mar 2023 00:43:56.040,495.696
26,6 Mar 2023 09:41:46.527,6 Mar 2023 09:50:05.868,499.341
27,6 Mar 2023 11:14:38.621,6 Mar 2023 11:23:27.106,528.484
28,6 Mar 2023 22:35:58.912,6 Mar 2023 22:43:44.994,466.082
29,7 Mar 2023 00:08:57.638,7 Mar 2023 00:17:50.773,533.135
30,7 Mar 2023 01:44:11.645,7 Mar 2023 01:46:21.655,130.010
31,7 Mar 2023 09:16:06.750,7 Mar 2023 09:23:10.838,424.088
32,7 Mar 2023 10:47:47.293,7 Mar 2023 10:56:51.291,543.998
33,7 Mar 2023 22:10:19.388,7 Mar 2023 22:15:23.661,304.273
34,7 Mar 2023 23:42:17.205,7 Mar 2023 23:51:19.203,541.998
35,8 Mar 2023 01:16:11.886,8 Mar 2023 01:22:10.208,358.323
36,8 Mar 2023 08:51:03.149,8 Mar 2023 08:55:52.881,289.732
37,8 Mar 2023 10:21:06.986,8 Mar 2023 10:30:07.250,540.265
38,8 Mar 2023 11:56:07.470,8 Mar 2023 12:02:40.813,393.343
39,8 Mar 2023 23:15:34.327,8 Mar 2023 23:24:36.693,542.365
40,9 Mar 2023 00:49:06.411,9 Mar 2023 00:56:48.557,462.145
41,9 Mar 2023 09:54:46.699,9 Mar 2023 10:03:28.287,521.588
42,9 Mar 2023 11:28:16.610,9 Mar 2023 11:36:38.722,502.112
43,9 Mar 2023 22:49:05.468,9 Mar 2023 22:57:31.913,506.445
44,10 Mar 2023 00:22:17.512,10 Mar 2023 00:30:56.706,519.194
45,10 Mar 2023 09:28:53.052,10 Mar 2023 09:36:40.242,467.190
46,10 Mar 2023 11:01:09.533,10 Mar 2023 11:10:11.040,541.507
47,10 Mar 2023 22:23:00.763,10 Mar 2023 22:29:44.899,404.137
48,10 Mar 2023 23:55:38.428,11 Mar 2023 00:04:38.222,539.794
49,11 Mar 2023 01:29:56.881,11 Mar 2023 01:34:34.120,277.239
50,11 Mar 2023 09:03:28.897,11 Mar 2023 09:09:36.147,367.250
51,11 Mar 2023 10:34:26.470,11 Mar 2023 10:43:28.722,542.253
52,11 Mar 2023 12:10:32.582,11 Mar 2023 12:15:18.672,286.089
53,11 Mar 2023 23:28:54.541,11 Mar 2023 23:37:58.453,543.911
54,12 Mar 2023 01:02:36.434,12 Mar 2023 01:09:33.745,417.311
55,12 Mar 2023 08:39:05.314,12 Mar 2023 08:41:46.235,160.921
56,12 Mar 2023 10:07:53.423,12 Mar 2023 10:16:47.764,534.341
57,12 Mar 2023 11:42:05.107,12 Mar 2023 11:49:44.429,459.321
58,12 Mar 2023 23:02:17.725,12 Mar 2023 23:11:08.634,530.908
59,13 Mar 2023 00:35:40.339,13 Mar 2023 00:43:56.023,495.684
60,13 Mar 2023 09:41:46.520,13 Mar 2023 09:50:05.854,499.334
61,13 Mar 2023 11:14:38.610,13 Mar 2023 11:23:27.105,528.495
62,13 Mar 2023 22:35:58.885,13 Mar 2023 22:43:44.990,466.105
63,14 Mar 2023 00:08:57.628,14 Mar 2023 00:17:50.759,533.131
64,14 Mar 2023 01:44:11.715,14 Mar 2023 01:46:21.546,129.830
65,14 Mar 2023 09:16:06.753,14 Mar 2023 09:23:10.812,424.059
66,14 Mar 2023 10:47:47.282,14 Mar 2023 10:56:51.277,543.995
67,14 Mar 2023 22:10:19.340,14 Mar 2023 22:15:23.676,304.336
68,14 Mar 2023 23:42:17.193,14 Mar 2023 23:51:19.192,541.999
69,15 Mar 2023 01:16:11.893,15 Mar 2023 01:22:10.178,358.285
70,15 Mar 2023 08:51:03.170,15 Mar 2023 08:55:52.839,289.669
71,15 Mar 2023 10:21:06.974,15 Mar 2023 10:30:07.238,540.264
72,15 Mar 2023 11:56:07.443,15 Mar 2023 12:02:40.826,393.383
73,15 Mar 2023 23:15:34.311,15 Mar 2023 23:24:36.680,542.370
74,16 Mar 2023 00:49:06.408,16 Mar 2023 00:56:48.537,462.130
75,16 Mar 2023 09:54:46.690,16 Mar 2023 10:03:28.271,521.581
76,16 Mar 2023 11:28:16.592,16 Mar 2023 11:36:38.721,502.129
77,16 Mar 2023 22:49:05.443,16 Mar 2023 22:57:31.904,506.461
78,17 Mar 2023 00:22:17.504,17 Mar 2023 00:30:56.692,519.187
79,17 Mar 2023 09:28:53.049,17 Mar 2023 09:36:40.222,467.174
80,17 Mar 2023 11:01:09.520,17 Mar 2023 11:10:11.033,541.513
81,17 Mar 2023 22:23:00.728,17 Mar 2023 22:29:44.898,404.170
82,17 Mar 2023 23:55:38.418,18 Mar 2023 00:04:38.212,539.794
83,18 Mar 2023 01:29:56.901,18 Mar 2023 01:34:34.077,277.176
84,18 Mar 2023 09:03:28.907,18 Mar 2023 09:09:36.116,367.209
85,18 Mar 2023 10:34:26.457,18 Mar 2023 10:43:28.711,542.254
86,18 Mar 2023 12:10:32.541,18 Mar 2023 12:15:18.699,286.158
87,18 Mar 2023 23:28:54.528,18 Mar 2023 23:37:58.443,543.915
88,19 Mar 2023 01:02:36.437,19 Mar 2023 01:09:33.719,417.282
89,19 Mar 2023 08:39:05.378,19 Mar 2023 08:41:46.161,160.783
90,19 Mar 2023 10:07:53.412,19 Mar 2023 10:16:47.751,534.339
91,19 Mar 2023 11:42:05.087,19 Mar 2023 11:49:44.433,459.346
92,19 Mar 2023 23:02:17.707,19 Mar 2023 23:11:08.626,530.919
93,20 Mar 2023 00:35:40.331,20 Mar 2023 00:43:56.007,495.676
94,20 Mar 2023 09:41:46.518,20 Mar 2023 09:50:05.836,499.319
95,20 Mar 2023 11:14:38.595,20 Mar 2023 11:23:27.102,528.507
96,20 Mar 2023 22:35:58.863,20 Mar 2023 22:43:44.984,466.121
97,21 Mar 2023 00:08:57.618,21 Mar 2023 00:17:50.749,533.131
98,21 Mar 2023 01:44:11.787,21 Mar 2023 01:46:21.442,129.654
99,21 Mar 2023 09:16:06.757,21 Mar 2023 09:23:10.788,424.032
100,21 Mar 2023 10:47:47.272,21 Mar 2023 10:56:51.271,543.999
101,21 Mar 2023 22:10:19.298,21 Mar 2023 22:15:23.685,304.387
102,21 Mar 2023 23:42:17.186,21 Mar 2023 23:51:19.182,541.997
103,22 Mar 2023 01:16:11.901,22 Mar 2023 01:22:10.151,358.250
104,22 Mar 2023 08:51:03.187,22 Mar 2023 08:55:52.801,289.613
105,22 Mar 2023 10:21:06.966,22 Mar 2023 10:30:07.230,540.264
106,22 Mar 2023 11:56:07.421,22 Mar 2023 12:02:40.840,393.419
107,22 Mar 2023 23:15:34.297,22 Mar 2023 23:24:36.672,542.375
108,23 Mar 2023 00:49:06.410,23 Mar 2023 00:56:48.519,462.109
109,23 Mar 2023 09:54:46.688,23 Mar 2023 10:03:28.259,521.571
110,23 Mar 2023 11:28:16.580,23 Mar 2023 11:36:38.726,502.145
111,23 Mar 2023 22:49:05.427,23 Mar 2023 22:57:31.901,506.475
112,24 Mar 2023 00:22:17.500,24 Mar 2023 00:30:56.681,519.181
113,24 Mar 2023 09:28:53.053,24 Mar 2023 09:36:40.205,467.152
114,24 Mar 2023 11:01:09.511,24 Mar 2023 11:10:11.032,541.520
115,24 Mar 2023 22:23:00.697,24 Mar 2023 22:29:44.905,404.208
116,24 Mar 2023 23:55:38.409,25 Mar 2023 00:04:38.204,539.795
117,25 Mar 2023 01:29:56.921,25 Mar 2023 01:34:34.034,277.113
118,25 Mar 2023 09:03:28.921,25 Mar 2023 09:09:36.088,367.167
119,25 Mar 2023 10:34:26.448,25 Mar 2023 10:43:28.704,542.256
120,25 Mar 2023 12:10:32.501,25 Mar 2023 12:15:18.731,286.230
121,25 Mar 2023 23:28:54.518,25 Mar 2023 23:37:58.436,543.918
122,26 Mar 2023 01:02:36.445,26 Mar 2023 01:09:33.700,417.255
123,26 Mar 2023 08:39:05.451,26 Mar 2023 08:41:46.081,160.631
124,26 Mar 2023 10:07:53.408,26 Mar 2023 10:16:47.745,534.337
125,26 Mar 2023 11:42:05.072,26 Mar 2023 11:49:44.443,459.371
126,26 Mar 2023 23:02:17.692,26 Mar 2023 23:11:08.619,530.927
127,27 Mar 2023 00:35:40.334,27 Mar 2023 00:43:55.992,495.658
128,27 Mar 2023 09:41:46.518,27 Mar 2023 09:50:05.826,499.308
129,27 Mar 2023 11:14:38.585,27 Mar 2023 11:23:27.103,528.518
130,27 Mar 2023 22:35:58.837,27 Mar 2023 22:43:44.987,466.150
131,28 Mar 2023 00:08:57.612,28 Mar 2023 00:17:50.738,533.127
132,28 Mar 2023 01:44:11.868,28 Mar 2023 01:46:21.320,129.452
133,28 Mar 2023 09:16:06.767,28 Mar 2023 09:23:10.765,423.998
134,28 Mar 2023 10:47:47.266,28 Mar 2023 10:56:51.264,543.998
135,28 Mar 2023 22:10:19.249,28 Mar 2023 22:15:23.707,304.459
136,28 Mar 2023 23:42:17.178,28 Mar 2023 23:51:19.176,541.998
137,29 Mar 2023 01:16:11.916,29 Mar 2023 01:22:10.124,358.207
138,29 Mar 2023 08:51:03.213,29 Mar 2023 08:55:52.762,289.549
139,29 Mar 2023 10:21:06.959,29 Mar 2023 10:30:07.222,540.263
140,29 Mar 2023 11:56:07.396,29 Mar 2023 12:02:40.860,393.463
141,29 Mar 2023 23:15:34.285,29 Mar 2023 23:24:36.663,542.378
142,30 Mar 2023 00:49:06.415,30 Mar 2023 00:56:48.502,462.087
143,30 Mar 2023 09:54:46.684,30 Mar 2023 10:03:28.250,521.567
144,30 Mar 2023 11:28:16.567,30 Mar 2023 11:36:38.732,502.165
145,30 Mar 2023 22:49:05.407,30 Mar 2023 22:57:31.899,506.492
146,31 Mar 2023 00:22:17.496,31 Mar 2023 00:30:56.672,519.176
147,31 Mar 2023 09:28:53.055,31 Mar 2023 09:36:40.188,467.133
148,31 Mar 2023 11:01:09.504,31 Mar 2023 11:10:11.030,541.526
149,31 Mar 2023 22:23:00.664,31 Mar 2023 22:29:44.911,404.247
150,31 Mar 2023 23:55:38.404,1 Apr 2023 00:00:00.000,261.596

