data/STK/Satellite_Eclipse_Times.csv

"Start Time (UTCG)","Stop Time (UTCG)","Duration (sec)","Obstruction","Start Pass Number","Stop Pass Number","Current Condition","Worst Condition","Total Duration (sec)"
1 Mar 2023 00:00:00.000,1 Mar 2023 00:15:37.036,937.036,"Earth","10114","10114","Umbra","Umbra",945.470
1 Mar 2023 00:15:37.036,1 Mar 2023 00:15:45.470,8.434,"Earth","10114","10114","Penumbra","Umbra",945.470
1 Mar 2023 01:14:11.674,1 Mar 2023 01:14:20.146,8.473,"Earth","10115","10115","Penumbra","Umbra",2146.525
1 Mar 2023 01:14:20.146,1 Mar 2023 01:49:49.764,2129.618,"Earth","10115","10115","Umbra","Umbra",2146.525
1 Mar 2023 01:49:49.764,1 Mar 2023 01:49:58.199,8.435,"Earth","10115","10115","Penumbra","Umbra",2146.525
1 Mar 2023 02:48:24.404,1 Mar 2023 02:48:32.876,8.473,"Earth","10116","10116","Penumbra","Umbra",2146.521
1 Mar 2023 02:48:32.876,1 Mar 2023 03:24:02.494,2129.617,"Earth","10116","10116","Umbra","Umbra",2146.521
1 Mar 2023 03:24:02.494,1 Mar 2023 03:24:10.925,8.431,"Earth","10116","10116","Penumbra","Umbra",2146.521
1 Mar 2023 04:22:37.134,1 Mar 2023 04:22:45.607,8.472,"Earth","10117","10117","Penumbra","Umbra",2146.520
1 Mar 2023 04:22:45.607,1 Mar 2023 04:58:15.220,2129.613,"Earth","10117","10117","Umbra","Umbra",2146.520
1 Mar 2023 04:58:15.220,1 Mar 2023 04:58:23.654,8.434,"Earth","10117","10117","Penumbra","Umbra",2146.520
1 Mar 2023 05:56:49.865,1 Mar 2023 05:56:58.337,8.472,"Earth","10118","10118","Penumbra","Umbra",2146.520
1 Mar 2023 05:56:58.337,1 Mar 2023 06:32:27.951,2129.615,"Earth","10118","10118","Umbra","Umbra",2146.520
1 Mar 2023 06:32:27.951,1 Mar 2023 06:32:36.385,8.434,"Earth","10118","10118","Penumbra","Umbra",2146.520
1 Mar 2023 07:31:02.595,1 Mar 2023 07:31:11.067,8.472,"Earth","10119","10119","Penumbra","Umbra",2146.516
1 Mar 2023 07:31:11.067,1 Mar 2023 08:06:40.678,2129.611,"Earth","10119","10119","Umbra","Umbra",2146.516
1 Mar 2023 08:06:40.678,1 Mar 2023 08:06:49.111,8.433,"Earth","10119","10119","Penumbra","Umbra",2146.516
1 Mar 2023 09:05:15.326,1 Mar 2023 09:05:23.798,8.472,"Earth","10120","10120","Penumbra","Umbra",2146.517
1 Mar 2023 09:05:23.798,1 Mar 2023 09:40:53.410,2129.612,"Earth","10120","10120","Umbra","Umbra",2146.517
1 Mar 2023 09:40:53.410,1 Mar 2023 09:41:01.843,8.434,"Earth","10120","10120","Penumbra","Umbra",2146.517
1 Mar 2023 10:39:28.057,1 Mar 2023 10:39:36.529,8.472,"Earth","10121","10121","Penumbra","Umbra",2146.512
1 Mar 2023 10:39:36.529,1 Mar 2023 11:15:06.138,2129.610,"Earth","10121","10121","Umbra","Umbra",2146.512
1 Mar 2023 11:15:06.138,1 Mar 2023 11:15:14.569,8.431,"Earth","10121","10121","Penumbra","Umbra",2146.512
1 Mar 2023 12:13:40.788,1 Mar 2023 12:13:49.259,8.471,"Earth","10122","10122","Penumbra","Umbra",2146.510
1 Mar 2023 12:13:49.259,1 Mar 2023 12:49:18.865,2129.606,"Earth","10122","10122","Umbra","Umbra",2146.510
1 Mar 2023 12:49:18.865,1 Mar 2023 12:49:27.298,8.433,"Earth","10122","10122","Penumbra","Umbra",2146.510
1 Mar 2023 13:47:53.519,1 Mar 2023 13:48:01.990,8.471,"Earth","10123","10123","Penumbra","Umbra",2146.511
1 Mar 2023 13:48:01.990,1 Mar 2023 14:23:31.594,2129.604,"Earth","10123","10123","Umbra","Umbra",2146.511
1 Mar 2023 14:23:31.594,1 Mar 2023 14:23:40.030,8.436,"Earth","10123","10123","Penumbra","Umbra",2146.511
1 Mar 2023 15:22:06.250,1 Mar 2023 15:22:14.721,8.471,"Earth","10124","10124","Penumbra","Umbra",2146.506
1 Mar 2023 15:22:14.721,1 Mar 2023 15:57:44.324,2129.602,"Earth","10124","10124","Umbra","Umbra",2146.506
1 Mar 2023 15:57:44.324,1 Mar 2023 15:57:52.757,8.433,"Earth","10124","10124","Penumbra","Umbra",2146.506
1 Mar 2023 16:56:18.982,1 Mar 2023 16:56:27.453,8.471,"Earth","10125","10125","Penumbra","Umbra",2146.507
1 Mar 2023 16:56:27.453,1 Mar 2023 17:31:57.053,2129.601,"Earth","10125","10125","Umbra","Umbra",2146.507
1 Mar 2023 17:31:57.053,1 Mar 2023 17:32:05.489,8.436,"Earth","10125","10125","Penumbra","Umbra",2146.507
1 Mar 2023 18:30:31.713,1 Mar 2023 18:30:40.184,8.471,"Earth","10126","10126","Penumbra","Umbra",2146.503
1 Mar 2023 18:30:40.184,1 Mar 2023 19:06:09.783,2129.599,"Earth","10126","10126","Umbra","Umbra",2146.503
1 Mar 2023 19:06:09.783,1 Mar 2023 19:06:18.216,8.433,"Earth","10126","10126","Penumbra","Umbra",2146.503
1 Mar 2023 20:04:44.445,1 Mar 2023 20:04:52.916,8.470,"Earth","10127","10127","Penumbra","Umbra",2146.501
1 Mar 2023 20:04:52.916,1 Mar 2023 20:40:22.513,2129.597,"Earth","10127","10127","Umbra","Umbra",2146.501
1 Mar 2023 20:40:22.513,1 Mar 2023 20:40:30.946,8.433,"Earth","10127","10127","Penumbra","Umbra",2146.501
1 Mar 2023 21:38:57.177,1 Mar 2023 21:39:05.647,8.470,"Earth","10128","10128","Penumbra","Umbra",2146.499
1 Mar 2023 21:39:05.647,1 Mar 2023 22:14:35.243,2129.596,"Earth","10128","10128","Umbra","Umbra",2146.499
1 Mar 2023 22:14:35.243,1 Mar 2023 22:14:43.676,8.433,"Earth","10128","10128","Penumbra","Umbra",2146.499
1 Mar 2023 23:13:09.909,1 Mar 2023 23:13:18.379,8.470,"Earth","10129","10129","Penumbra","Umbra",2146.497
1 Mar 2023 23:13:18.379,1 Mar 2023 23:48:47.973,2129.594,"Earth","10129","10129","Umbra","Umbra",2146.497
1 Mar 2023 23:48:47.973,1 Mar 2023 23:48:56.406,8.433,"Earth","10129","10129","Penumbra","Umbra",2146.497
2 Mar 2023 00:47:22.641,2 Mar 2023 00:47:31.111,8.470,"Earth","10130","10130","Penumbra","Umbra",2146.495
2 Mar 2023 00:47:31.111,2 Mar 2023 01:23:00.703,2129.593,"Earth","10130","10130","Umbra","Umbra",2146.495
2 Mar 2023 01:23:00.703,2 Mar 2023 01:23:09.136,8.433,"Earth","10130","10130","Penumbra","Umbra",2146.495
2 Mar 2023 02:21:35.373,2 Mar 2023 02:21:43.843,8.470,"Earth","10131","10131","Penumbra","Umbra",2146.493
2 Mar 2023 02:21:43.843,2 Mar 2023 02:57:13.436,2129.593,"Earth","10131","10131","Umbra","Umbra",2146.493
2 Mar 2023 02:57:13.436,2 Mar 2023 02:57:21.866,8.430,"Earth","10131","10131","Penumbra","Umbra",2146.493
2 Mar 2023 03:55:48.106,2 Mar 2023 03:55:56.575,8.470,"Earth","10132","10132","Penumbra","Umbra",2146.491
2 Mar 2023 03:55:56.575,2 Mar 2023 04:31:26.164,2129.589,"Earth","10132","10132","Umbra","Umbra",2146.491
2 Mar 2023 04:31:26.164,2 Mar 2023 04:31:34.597,8.432,"Earth","10132","10132","Penumbra","Umbra",2146.491
2 Mar 2023 05:30:00.838,2 Mar 2023 05:30:09.307,8.469,"Earth","10133","10133","Penumbra","Umbra",2146.489
2 Mar 2023 05:30:09.307,2 Mar 2023 06:05:38.895,2129.588,"Earth","10133","10133","Umbra","Umbra",2146.489
2 Mar 2023 06:05:38.895,2 Mar 2023 06:05:47.327,8.432,"Earth","10133","10133","Penumbra","Umbra",2146.489
2 Mar 2023 07:04:13.571,2 Mar 2023 07:04:22.040,8.469,"Earth","10134","10134","Penumbra","Umbra",2146.488
2 Mar 2023 07:04:22.040,2 Mar 2023 07:39:51.626,2129.586,"Earth","10134","10134","Umbra","Umbra",2146.488
2 Mar 2023 07:39:51.626,2 Mar 2023 07:40:00.058,8.432,"Earth","10134","10134","Penumbra","Umbra",2146.488
2 Mar 2023 08:38:26.303,2 Mar 2023 08:38:34.772,8.469,"Earth","10135","10135","Penumbra","Umbra",2146.486
2 Mar 2023 08:38:34.772,2 Mar 2023 09:14:04.357,2129.585,"Earth","10135","10135","Umbra","Umbra",2146.486
2 Mar 2023 09:14:04.357,2 Mar 2023 09:14:12.789,8.432,"Earth","10135","10135","Penumbra","Umbra",2146.486
2 Mar 2023 10:12:39.036,2 Mar 2023 10:12:47.505,8.469,"Earth","10136","10136","Penumbra","Umbra",2146.484
2 Mar 2023 10:12:47.505,2 Mar 2023 10:48:17.088,2129.583,"Earth","10136","10136","Umbra","Umbra",2146.484
2 Mar 2023 10:48:17.088,2 Mar 2023 10:48:25.520,8.432,"Earth","10136","10136","Penumbra","Umbra",2146.484
2 Mar 2023 11:46:51.769,2 Mar 2023 11:47:00.238,8.469,"Earth","10137","10137","Penumbra","Umbra",2146.482
2 Mar 2023 11:47:00.238,2 Mar 2023 12:22:29.819,2129.581,"Earth","10137","10137","Umbra","Umbra",2146.482
2 Mar 2023 12:22:29.819,2 Mar 2023 12:22:38.251,8.432,"Earth","10137","10137","Penumbra","Umbra",2146.482
2 Mar 2023 13:21:04.502,2 Mar 2023 13:21:12.971,8.468,"Earth","10138","10138","Penumbra","Umbra",2146.480
2 Mar 2023 13:21:12.971,2 Mar 2023 13:56:42.551,2129.580,"Earth","10138","10138","Umbra","Umbra",2146.480
2 Mar 2023 13:56:42.551,2 Mar 2023 13:56:50.983,8.432,"Earth","10138","10138","Penumbra","Umbra",2146.480
2 Mar 2023 14:55:17.236,2 Mar 2023 14:55:25.704,8.468,"Earth","10139","10139","Penumbra","Umbra",2146.478
2 Mar 2023 14:55:25.704,2 Mar 2023 15:30:55.282,2129.578,"Earth","10139","10139","Umbra","Umbra",2146.478
2 Mar 2023 15:30:55.282,2 Mar 2023 15:31:03.714,8.432,"Earth","10139","10139","Penumbra","Umbra",2146.478
2 Mar 2023 16:29:29.969,2 Mar 2023 16:29:38.437,8.468,"Earth","10140","10140","Penumbra","Umbra",2146.477
2 Mar 2023 16:29:38.437,2 Mar 2023 17:05:08.014,2129.577,"Earth","10140","10140","Umbra","Umbra",2146.477
2 Mar 2023 17:05:08.014,2 Mar 2023 17:05:16.446,8.432,"Earth","10140","10140","Penumbra","Umbra",2146.477
2 Mar 2023 18:03:42.702,2 Mar 2023 18:03:51.170,8.468,"Earth","10141","10141","Penumbra","Umbra",2146.475
2 Mar 2023 18:03:51.170,2 Mar 2023 18:39:20.746,2129.575,"Earth","10141","10141","Umbra","Umbra",2146.475
2 Mar 2023 18:39:20.746,2 Mar 2023 18:39:29.177,8.432,"Earth","10141","10141","Penumbra","Umbra",2146.475
2 Mar 2023 19:37:55.436,2 Mar 2023 19:38:03.904,8.468,"Earth","10142","10142","Penumbra","Umbra",2146.473
2 Mar 2023 19:38:03.904,2 Mar 2023 20:13:33.477,2129.574,"Earth","10142","10142","Umbra","Umbra",2146.473
2 Mar 2023 20:13:33.477,2 Mar 2023 20:13:41.909,8.432,"Earth","10142","10142","Penumbra","Umbra",2146.473
2 Mar 2023 21:12:08.170,2 Mar 2023 21:12:16.637,8.467,"Earth","10143","10143","Penumbra","Umbra",2146.471
2 Mar 2023 21:12:16.637,2 Mar 2023 21:47:46.209,2129.572,"Earth","10143","10143","Umbra","Umbra",2146.471
2 Mar 2023 21:47:46.209,2 Mar 2023 21:47:54.641,8.432,"Earth","10143","10143","Penumbra","Umbra",2146.471
2 Mar 2023 22:46:20.901,2 Mar 2023 22:46:29.372,8.471,"Earth","10144","10144","Penumbra","Umbra",2146.472
2 Mar 2023 22:46:29.372,2 Mar 2023 23:21:58.942,2129.570,"Earth","10144","10144","Umbra","Umbra",2146.472
2 Mar 2023 23:21:58.942,2 Mar 2023 23:22:07.373,8.432,"Earth","10144","10144","Penumbra","Umbra",2146.472
3 Mar 2023 00:20:33.636,3 Mar 2023 00:20:42.105,8.468,"Earth","10145","10145","Penumbra","Umbra",2146.469
3 Mar 2023 00:20:42.105,3 Mar 2023 00:56:11.674,2129.569,"Earth","10145","10145","Umbra","Umbra",2146.469
3 Mar 2023 00:56:11.674,3 Mar 2023 00:56:20.105,8.431,"Earth","10145","10145","Penumbra","Umbra",2146.469
3 Mar 2023 01:54:46.372,3 Mar 2023 01:54:54.839,8.467,"Earth","10146","10146","Penumbra","Umbra",2146.466
3 Mar 2023 01:54:54.839,3 Mar 2023 02:30:24.406,2129.568,"Earth","10146","10146","Umbra","Umbra",2146.466
3 Mar 2023 02:30:24.406,3 Mar 2023 02:30:32.838,8.431,"Earth","10146","10146","Penumbra","Umbra",2146.466
3 Mar 2023 03:28:59.106,3 Mar 2023 03:29:07.573,8.467,"Earth","10147","10147","Penumbra","Umbra",2146.464
3 Mar 2023 03:29:07.573,3 Mar 2023 04:04:37.139,2129.566,"Earth","10147","10147","Umbra","Umbra",2146.464
3 Mar 2023 04:04:37.139,3 Mar 2023 04:04:45.570,8.431,"Earth","10147","10147","Penumbra","Umbra",2146.464
3 Mar 2023 05:03:11.840,3 Mar 2023 05:03:20.308,8.468,"Earth","10148","10148","Penumbra","Umbra",2146.463
3 Mar 2023 05:03:20.308,3 Mar 2023 05:38:49.872,2129.564,"Earth","10148","10148","Umbra","Umbra",2146.463
3 Mar 2023 05:38:49.872,3 Mar 2023 05:38:58.303,8.431,"Earth","10148","10148","Penumbra","Umbra",2146.463
3 Mar 2023 06:37:24.574,3 Mar 2023 06:37:33.040,8.466,"Earth","10149","10149","Penumbra","Umbra",2146.462
3 Mar 2023 06:37:33.040,3 Mar 2023 07:13:02.605,2129.565,"Earth","10149","10149","Umbra","Umbra",2146.462
3 Mar 2023 07:13:02.605,3 Mar 2023 07:13:11.036,8.431,"Earth","10149","10149","Penumbra","Umbra",2146.462
3 Mar 2023 08:11:37.308,3 Mar 2023 08:11:45.774,8.466,"Earth","10150","10150","Penumbra","Umbra",2146.461
3 Mar 2023 08:11:45.774,3 Mar 2023 08:47:15.337,2129.564,"Earth","10150","10150","Umbra","Umbra",2146.461
3 Mar 2023 08:47:15.337,3 Mar 2023 08:47:23.769,8.431,"Earth","10150","10150","Penumbra","Umbra",2146.461
3 Mar 2023 09:45:50.042,3 Mar 2023 09:45:58.508,8.466,"Earth","10151","10151","Penumbra","Umbra",2146.459
3 Mar 2023 09:45:58.508,3 Mar 2023 10:21:28.071,2129.562,"Earth","10151","10151","Umbra","Umbra",2146.459
3 Mar 2023 10:21:28.071,3 Mar 2023 10:21:36.502,8.431,"Earth","10151","10151","Penumbra","Umbra",2146.459
3 Mar 2023 11:20:02.777,3 Mar 2023 11:20:11.243,8.466,"Earth","10152","10152","Penumbra","Umbra",2146.458
3 Mar 2023 11:20:11.243,3 Mar 2023 11:55:40.804,2129.561,"Earth","10152","10152","Umbra","Umbra",2146.458
3 Mar 2023 11:55:40.804,3 Mar 2023 11:55:49.235,8.431,"Earth","10152","10152","Penumbra","Umbra",2146.458
3 Mar 2023 12:54:15.512,3 Mar 2023 12:54:23.977,8.465,"Earth","10153","10153","Penumbra","Umbra",2146.456
3 Mar 2023 12:54:23.977,3 Mar 2023 13:29:53.537,2129.560,"Earth","10153","10153","Umbra","Umbra",2146.456
3 Mar 2023 13:29:53.537,3 Mar 2023 13:30:01.968,8.431,"Earth","10153","10153","Penumbra","Umbra",2146.456
3 Mar 2023 14:28:28.247,3 Mar 2023 14:28:36.712,8.465,"Earth","10154","10154","Penumbra","Umbra",2146.455
3 Mar 2023 14:28:36.712,3 Mar 2023 15:04:06.271,2129.559,"Earth","10154","10154","Umbra","Umbra",2146.455
3 Mar 2023 15:04:06.271,3 Mar 2023 15:04:14.701,8.431,"Earth","10154","10154","Penumbra","Umbra",2146.455
3 Mar 2023 16:02:40.982,3 Mar 2023 16:02:49.449,8.467,"Earth","10155","10155","Penumbra","Umbra",2146.453
3 Mar 2023 16:02:49.449,3 Mar 2023 16:38:19.004,2129.555,"Earth","10155","10155","Umbra","Umbra",2146.453
3 Mar 2023 16:38:19.004,3 Mar 2023 16:38:27.435,8.431,"Earth","10155","10155","Penumbra","Umbra",2146.453
3 Mar 2023 17:36:53.717,3 Mar 2023 17:37:02.184,8.467,"Earth","10156","10156","Penumbra","Umbra",2146.452
3 Mar 2023 17:37:02.184,3 Mar 2023 18:12:31.738,2129.554,"Earth","10156","10156","Umbra","Umbra",2146.452
3 Mar 2023 18:12:31.738,3 Mar 2023 18:12:40.169,8.431,"Earth","10156","10156","Penumbra","Umbra",2146.452
3 Mar 2023 19:11:06.455,3 Mar 2023 19:11:14.918,8.463,"Earth","10157","10157","Penumbra","Umbra",2146.447
3 Mar 2023 19:11:14.918,3 Mar 2023 19:46:44.472,2129.553,"Earth","10157","10157","Umbra","Umbra",2146.447
3 Mar 2023 19:46:44.472,3 Mar 2023 19:46:52.902,8.431,"Earth","10157","10157","Penumbra","Umbra",2146.447
3 Mar 2023 20:45:19.187,3 Mar 2023 20:45:27.655,8.467,"Earth","10158","10158","Penumbra","Umbra",2146.449
3 Mar 2023 20:45:27.655,3 Mar 2023 21:20:57.206,2129.551,"Earth","10158","10158","Umbra","Umbra",2146.449
3 Mar 2023 21:20:57.206,3 Mar 2023 21:21:05.636,8.431,"Earth","10158","10158","Penumbra","Umbra",2146.449
3 Mar 2023 22:19:31.926,3 Mar 2023 22:19:40.387,8.461,"Earth","10159","10159","Penumbra","Umbra",2146.444
3 Mar 2023 22:19:40.387,3 Mar 2023 22:55:09.940,2129.553,"Earth","10159","10159","Umbra","Umbra",2146.444
3 Mar 2023 22:55:09.940,3 Mar 2023 22:55:18.370,8.430,"Earth","10159","10159","Penumbra","Umbra",2146.444
3 Mar 2023 23:53:44.662,3 Mar 2023 23:53:53.122,8.461,"Earth","10160","10160","Penumbra","Umbra",2146.443
3 Mar 2023 23:53:53.122,4 Mar 2023 00:29:22.674,2129.552,"Earth","10160","10160","Umbra","Umbra",2146.443
4 Mar 2023 00:29:22.674,4 Mar 2023 00:29:31.104,8.430,"Earth","10160","10160","Penumbra","Umbra",2146.443
4 Mar 2023 01:27:57.398,4 Mar 2023 01:28:05.859,8.461,"Earth","10161","10161","Penumbra","Umbra",2146.441
4 Mar 2023 01:28:05.859,4 Mar 2023 02:03:35.408,2129.549,"Earth","10161","10161","Umbra","Umbra",2146.441
4 Mar 2023 02:03:35.408,4 Mar 2023 02:03:43.839,8.430,"Earth","10161","10161","Penumbra","Umbra",2146.441
4 Mar 2023 03:02:10.134,4 Mar 2023 03:02:18.597,8.464,"Earth","10162","10162","Penumbra","Umbra",2146.439
4 Mar 2023 03:02:18.597,4 Mar 2023 03:37:48.143,2129.545,"Earth","10162","10162","Umbra","Umbra",2146.439
4 Mar 2023 03:37:48.143,4 Mar 2023 03:37:56.573,8.430,"Earth","10162","10162","Penumbra","Umbra",2146.439
4 Mar 2023 04:36:22.867,4 Mar 2023 04:36:31.333,8.466,"Earth","10163","10163","Penumbra","Umbra",2146.440
4 Mar 2023 04:36:31.333,4 Mar 2023 05:12:00.877,2129.544,"Earth","10163","10163","Umbra","Umbra",2146.440
4 Mar 2023 05:12:00.877,4 Mar 2023 05:12:09.308,8.430,"Earth","10163","10163","Penumbra","Umbra",2146.440
4 Mar 2023 06:10:35.606,4 Mar 2023 06:10:44.066,8.460,"Earth","10164","10164","Penumbra","Umbra",2146.436
4 Mar 2023 06:10:44.066,4 Mar 2023 06:46:13.612,2129.546,"Earth","10164","10164","Umbra","Umbra",2146.436
4 Mar 2023 06:46:13.612,4 Mar 2023 06:46:22.042,8.430,"Earth","10164","10164","Penumbra","Umbra",2146.436
4 Mar 2023 07:44:48.342,4 Mar 2023 07:44:56.806,8.463,"Earth","10165","10165","Penumbra","Umbra",2146.435
4 Mar 2023 07:44:56.806,4 Mar 2023 08:20:26.347,2129.542,"Earth","10165","10165","Umbra","Umbra",2146.435
4 Mar 2023 08:20:26.347,4 Mar 2023 08:20:34.777,8.430,"Earth","10165","10165","Penumbra","Umbra",2146.435
4 Mar 2023 09:19:01.079,4 Mar 2023 09:19:09.542,8.463,"Earth","10166","10166","Penumbra","Umbra",2146.433
4 Mar 2023 09:19:09.542,4 Mar 2023 09:54:39.082,2129.540,"Earth","10166","10166","Umbra","Umbra",2146.433
4 Mar 2023 09:54:39.082,4 Mar 2023 09:54:47.512,8.430,"Earth","10166","10166","Penumbra","Umbra",2146.433
4 Mar 2023 10:53:13.815,4 Mar 2023 10:53:22.278,8.463,"Earth","10167","10167","Penumbra","Umbra",2146.431
4 Mar 2023 10:53:22.278,4 Mar 2023 11:28:51.817,2129.539,"Earth","10167","10167","Umbra","Umbra",2146.431
4 Mar 2023 11:28:51.817,4 Mar 2023 11:29:00.247,8.430,"Earth","10167","10167","Penumbra","Umbra",2146.431
4 Mar 2023 12:27:26.552,4 Mar 2023 12:27:35.011,8.459,"Earth","10168","10168","Penumbra","Umbra",2146.430
4 Mar 2023 12:27:35.011,4 Mar 2023 13:03:04.552,2129.541,"Earth","10168","10168","Umbra","Umbra",2146.430
4 Mar 2023 13:03:04.552,4 Mar 2023 13:03:12.982,8.430,"Earth","10168","10168","Penumbra","Umbra",2146.430
4 Mar 2023 14:01:39.289,4 Mar 2023 14:01:47.751,8.462,"Earth","10169","10169","Penumbra","Umbra",2146.428
4 Mar 2023 14:01:47.751,4 Mar 2023 14:37:17.288,2129.536,"Earth","10169","10169","Umbra","Umbra",2146.428
4 Mar 2023 14:37:17.288,4 Mar 2023 14:37:25.717,8.430,"Earth","10169","10169","Penumbra","Umbra",2146.428
4 Mar 2023 15:35:52.026,4 Mar 2023 15:36:00.484,8.458,"Earth","10170","10170","Penumbra","Umbra",2146.427
4 Mar 2023 15:36:00.484,4 Mar 2023 16:11:30.023,2129.539,"Earth","10170","10170","Umbra","Umbra",2146.427
4 Mar 2023 16:11:30.023,4 Mar 2023 16:11:38.453,8.430,"Earth","10170","10170","Penumbra","Umbra",2146.427
4 Mar 2023 17:10:04.763,4 Mar 2023 17:10:13.222,8.459,"Earth","10171","10171","Penumbra","Umbra",2146.427
4 Mar 2023 17:10:13.222,4 Mar 2023 17:45:42.759,2129.536,"Earth","10171","10171","Umbra","Umbra",2146.427
4 Mar 2023 17:45:42.759,4 Mar 2023 17:45:51.189,8.431,"Earth","10171","10171","Penumbra","Umbra",2146.427
4 Mar 2023 18:44:17.500,4 Mar 2023 18:44:25.959,8.459,"Earth","10172","10172","Penumbra","Umbra",2146.425
4 Mar 2023 18:44:25.959,4 Mar 2023 19:19:55.496,2129.536,"Earth","10172","10172","Umbra","Umbra",2146.425
4 Mar 2023 19:19:55.496,4 Mar 2023 19:20:03.925,8.429,"Earth","10172","10172","Penumbra","Umbra",2146.425
4 Mar 2023 20:18:30.237,4 Mar 2023 20:18:38.699,8.462,"Earth","10173","10173","Penumbra","Umbra",2146.422
4 Mar 2023 20:18:38.699,4 Mar 2023 20:54:08.229,2129.530,"Earth","10173","10173","Umbra","Umbra",2146.422
4 Mar 2023 20:54:08.229,4 Mar 2023 20:54:16.659,8.431,"Earth","10173","10173","Penumbra","Umbra",2146.422
4 Mar 2023 21:52:42.975,4 Mar 2023 21:52:51.436,8.461,"Earth","10174","10174","Penumbra","Umbra",2146.421
4 Mar 2023 21:52:51.436,4 Mar 2023 22:28:20.966,2129.530,"Earth","10174","10174","Umbra","Umbra",2146.421
4 Mar 2023 22:28:20.966,4 Mar 2023 22:28:29.395,8.429,"Earth","10174","10174","Penumbra","Umbra",2146.421
4 Mar 2023 23:26:55.712,4 Mar 2023 23:27:04.173,8.461,"Earth","10175","10175","Penumbra","Umbra",2146.418
4 Mar 2023 23:27:04.173,5 Mar 2023 00:02:33.702,2129.529,"Earth","10175","10175","Umbra","Umbra",2146.418
5 Mar 2023 00:02:33.702,5 Mar 2023 00:02:42.130,8.428,"Earth","10175","10175","Penumbra","Umbra",2146.418
5 Mar 2023 01:01:08.449,5 Mar 2023 01:01:16.910,8.461,"Earth","10176","10176","Penumbra","Umbra",2146.419
5 Mar 2023 01:01:16.910,5 Mar 2023 01:36:46.439,2129.529,"Earth","10176","10176","Umbra","Umbra",2146.419
5 Mar 2023 01:36:46.439,5 Mar 2023 01:36:54.869,8.429,"Earth","10176","10176","Penumbra","Umbra",2146.419
5 Mar 2023 02:35:21.187,5 Mar 2023 02:35:29.648,8.461,"Earth","10177","10177","Penumbra","Umbra",2146.416
5 Mar 2023 02:35:29.648,5 Mar 2023 03:10:59.176,2129.528,"Earth","10177","10177","Umbra","Umbra",2146.416
5 Mar 2023 03:10:59.176,5 Mar 2023 03:11:07.603,8.428,"Earth","10177","10177","Penumbra","Umbra",2146.416
5 Mar 2023 04:09:33.925,5 Mar 2023 04:09:42.385,8.461,"Earth","10178","10178","Penumbra","Umbra",2146.415
5 Mar 2023 04:09:42.385,5 Mar 2023 04:45:11.911,2129.525,"Earth","10178","10178","Umbra","Umbra",2146.415
5 Mar 2023 04:45:11.911,5 Mar 2023 04:45:20.340,8.429,"Earth","10178","10178","Penumbra","Umbra",2146.415
5 Mar 2023 05:43:46.663,5 Mar 2023 05:43:55.123,8.460,"Earth","10179","10179","Penumbra","Umbra",2146.413
5 Mar 2023 05:43:55.123,5 Mar 2023 06:19:24.647,2129.524,"Earth","10179","10179","Umbra","Umbra",2146.413
5 Mar 2023 06:19:24.647,5 Mar 2023 06:19:33.076,8.429,"Earth","10179","10179","Penumbra","Umbra",2146.413
5 Mar 2023 07:17:59.401,5 Mar 2023 07:18:07.861,8.460,"Earth","10180","10180","Penumbra","Umbra",2146.415
5 Mar 2023 07:18:07.861,5 Mar 2023 07:53:37.386,2129.525,"Earth","10180","10180","Umbra","Umbra",2146.415
5 Mar 2023 07:53:37.386,5 Mar 2023 07:53:45.815,8.429,"Earth","10180","10180","Penumbra","Umbra",2146.415
5 Mar 2023 08:52:12.139,5 Mar 2023 08:52:20.599,8.460,"Earth","10181","10181","Penumbra","Umbra",2146.410
5 Mar 2023 08:52:20.599,5 Mar 2023 09:27:50.121,2129.522,"Earth","10181","10181","Umbra","Umbra",2146.410
5 Mar 2023 09:27:50.121,5 Mar 2023 09:27:58.549,8.429,"Earth","10181","10181","Penumbra","Umbra",2146.410
5 Mar 2023 10:26:24.877,5 Mar 2023 10:26:33.337,8.460,"Earth","10182","10182","Penumbra","Umbra",2146.409
5 Mar 2023 10:26:33.337,5 Mar 2023 11:02:02.857,2129.521,"Earth","10182","10182","Umbra","Umbra",2146.409
5 Mar 2023 11:02:02.857,5 Mar 2023 11:02:11.286,8.429,"Earth","10182","10182","Penumbra","Umbra",2146.409
5 Mar 2023 12:00:37.615,5 Mar 2023 12:00:46.075,8.460,"Earth","10183","10183","Penumbra","Umbra",2146.411
5 Mar 2023 12:00:46.075,5 Mar 2023 12:36:15.598,2129.523,"Earth","10183","10183","Umbra","Umbra",2146.411
5 Mar 2023 12:36:15.598,5 Mar 2023 12:36:24.026,8.429,"Earth","10183","10183","Penumbra","Umbra",2146.411
5 Mar 2023 13:34:50.354,5 Mar 2023 13:34:58.813,8.459,"Earth","10184","10184","Penumbra","Umbra",2146.406
5 Mar 2023 13:34:58.813,5 Mar 2023 14:10:28.331,2129.518,"Earth","10184","10184","Umbra","Umbra",2146.406
5 Mar 2023 14:10:28.331,5 Mar 2023 14:10:36.760,8.428,"Earth","10184","10184","Penumbra","Umbra",2146.406
5 Mar 2023 15:09:03.092,5 Mar 2023 15:09:11.551,8.459,"Earth","10185","10185","Penumbra","Umbra",2146.405
5 Mar 2023 15:09:11.551,5 Mar 2023 15:44:41.069,2129.517,"Earth","10185","10185","Umbra","Umbra",2146.405
5 Mar 2023 15:44:41.069,5 Mar 2023 15:44:49.497,8.428,"Earth","10185","10185","Penumbra","Umbra",2146.405
5 Mar 2023 16:43:15.831,5 Mar 2023 16:43:24.290,8.459,"Earth","10186","10186","Penumbra","Umbra",2146.406
5 Mar 2023 16:43:24.290,5 Mar 2023 17:18:53.806,2129.516,"Earth","10186","10186","Umbra","Umbra",2146.406
5 Mar 2023 17:18:53.806,5 Mar 2023 17:19:02.237,8.431,"Earth","10186","10186","Penumbra","Umbra",2146.406
5 Mar 2023 18:17:28.569,5 Mar 2023 18:17:37.028,8.459,"Earth","10187","10187","Penumbra","Umbra",2146.402
5 Mar 2023 18:17:37.028,5 Mar 2023 18:53:06.543,2129.515,"Earth","10187","10187","Umbra","Umbra",2146.402
5 Mar 2023 18:53:06.543,5 Mar 2023 18:53:14.971,8.428,"Earth","10187","10187","Penumbra","Umbra",2146.402
5 Mar 2023 19:51:41.308,5 Mar 2023 19:51:49.767,8.459,"Earth","10188","10188","Penumbra","Umbra",2146.401
5 Mar 2023 19:51:49.767,5 Mar 2023 20:27:19.281,2129.514,"Earth","10188","10188","Umbra","Umbra",2146.401
5 Mar 2023 20:27:19.281,5 Mar 2023 20:27:27.709,8.428,"Earth","10188","10188","Penumbra","Umbra",2146.401
5 Mar 2023 21:25:54.047,5 Mar 2023 21:26:02.505,8.458,"Earth","10189","10189","Penumbra","Umbra",2146.399
5 Mar 2023 21:26:02.505,5 Mar 2023 22:01:32.018,2129.513,"Earth","10189","10189","Umbra","Umbra",2146.399
5 Mar 2023 22:01:32.018,5 Mar 2023 22:01:40.446,8.428,"Earth","10189","10189","Penumbra","Umbra",2146.399
5 Mar 2023 23:00:06.786,5 Mar 2023 23:00:15.244,8.458,"Earth","10190","10190","Penumbra","Umbra",2146.401
5 Mar 2023 23:00:15.244,5 Mar 2023 23:35:44.759,2129.515,"Earth","10190","10190","Umbra","Umbra",2146.401
5 Mar 2023 23:35:44.759,5 Mar 2023 23:35:53.187,8.428,"Earth","10190","10190","Penumbra","Umbra",2146.401
6 Mar 2023 00:34:19.525,6 Mar 2023 00:34:27.983,8.458,"Earth","10191","10191","Penumbra","Umbra",2146.396
6 Mar 2023 00:34:27.983,6 Mar 2023 01:09:57.494,2129.511,"Earth","10191","10191","Umbra","Umbra",2146.396
6 Mar 2023 01:09:57.494,6 Mar 2023 01:10:05.922,8.428,"Earth","10191","10191","Penumbra","Umbra",2146.396
6 Mar 2023 02:08:32.264,6 Mar 2023 02:08:40.722,8.458,"Earth","10192","10192","Penumbra","Umbra",2146.395
6 Mar 2023 02:08:40.722,6 Mar 2023 02:44:10.232,2129.510,"Earth","10192","10192","Umbra","Umbra",2146.395
6 Mar 2023 02:44:10.232,6 Mar 2023 02:44:18.660,8.428,"Earth","10192","10192","Penumbra","Umbra",2146.395
6 Mar 2023 03:42:45.004,6 Mar 2023 03:42:53.461,8.457,"Earth","10193","10193","Penumbra","Umbra",2146.394
6 Mar 2023 03:42:53.461,6 Mar 2023 04:18:22.972,2129.511,"Earth","10193","10193","Umbra","Umbra",2146.394
6 Mar 2023 04:18:22.972,6 Mar 2023 04:18:31.397,8.425,"Earth","10193","10193","Penumbra","Umbra",2146.394
6 Mar 2023 05:16:57.743,6 Mar 2023 05:17:06.200,8.457,"Earth","10194","10194","Penumbra","Umbra",2146.392
6 Mar 2023 05:17:06.200,6 Mar 2023 05:52:35.708,2129.507,"Earth","10194","10194","Umbra","Umbra",2146.392
6 Mar 2023 05:52:35.708,6 Mar 2023 05:52:44.136,8.428,"Earth","10194","10194","Penumbra","Umbra",2146.392
6 Mar 2023 06:51:10.483,6 Mar 2023 06:51:18.940,8.457,"Earth","10195","10195","Penumbra","Umbra",2146.394
6 Mar 2023 06:51:18.940,6 Mar 2023 07:26:48.446,2129.506,"Earth","10195","10195","Umbra","Umbra",2146.394
6 Mar 2023 07:26:48.446,6 Mar 2023 07:26:56.876,8.430,"Earth","10195","10195","Penumbra","Umbra",2146.394
6 Mar 2023 08:25:23.222,6 Mar 2023 08:25:31.679,8.457,"Earth","10196","10196","Penumbra","Umbra",2146.390
6 Mar 2023 08:25:31.679,6 Mar 2023 09:01:01.184,2129.505,"Earth","10196","10196","Umbra","Umbra",2146.390
6 Mar 2023 09:01:01.184,6 Mar 2023 09:01:09.612,8.428,"Earth","10196","10196","Penumbra","Umbra",2146.390
6 Mar 2023 09:59:35.962,6 Mar 2023 09:59:44.418,8.457,"Earth","10197","10197","Penumbra","Umbra",2146.389
6 Mar 2023 09:59:44.418,6 Mar 2023 10:35:13.923,2129.504,"Earth","10197","10197","Umbra","Umbra",2146.389
6 Mar 2023 10:35:13.923,6 Mar 2023 10:35:22.350,8.427,"Earth","10197","10197","Penumbra","Umbra",2146.389
6 Mar 2023 11:33:48.702,6 Mar 2023 11:33:57.158,8.456,"Earth","10198","10198","Penumbra","Umbra",2146.387
6 Mar 2023 11:33:57.158,6 Mar 2023 12:09:26.661,2129.503,"Earth","10198","10198","Umbra","Umbra",2146.387
6 Mar 2023 12:09:26.661,6 Mar 2023 12:09:35.089,8.427,"Earth","10198","10198","Penumbra","Umbra",2146.387
6 Mar 2023 13:08:01.441,6 Mar 2023 13:08:09.898,8.456,"Earth","10199","10199","Penumbra","Umbra",2146.386
6 Mar 2023 13:08:09.898,6 Mar 2023 13:43:39.400,2129.502,"Earth","10199","10199","Umbra","Umbra",2146.386
6 Mar 2023 13:43:39.400,6 Mar 2023 13:43:47.827,8.427,"Earth","10199","10199","Penumbra","Umbra",2146.386
6 Mar 2023 14:42:14.181,6 Mar 2023 14:42:22.637,8.456,"Earth","10200","10200","Penumbra","Umbra",2146.385
6 Mar 2023 14:42:22.637,6 Mar 2023 15:17:52.139,2129.501,"Earth","10200","10200","Umbra","Umbra",2146.385
6 Mar 2023 15:17:52.139,6 Mar 2023 15:18:00.566,8.427,"Earth","10200","10200","Penumbra","Umbra",2146.385
6 Mar 2023 16:16:26.921,6 Mar 2023 16:16:35.377,8.456,"Earth","10201","10201","Penumbra","Umbra",2146.383
6 Mar 2023 16:16:35.377,6 Mar 2023 16:52:04.878,2129.500,"Earth","10201","10201","Umbra","Umbra",2146.383
6 Mar 2023 16:52:04.878,6 Mar 2023 16:52:13.305,8.427,"Earth","10201","10201","Penumbra","Umbra",2146.383
6 Mar 2023 17:50:39.662,6 Mar 2023 17:50:48.117,8.456,"Earth","10202","10202","Penumbra","Umbra",2146.382
6 Mar 2023 17:50:48.117,6 Mar 2023 18:26:17.617,2129.499,"Earth","10202","10202","Umbra","Umbra",2146.382
6 Mar 2023 18:26:17.617,6 Mar 2023 18:26:26.044,8.427,"Earth","10202","10202","Penumbra","Umbra",2146.382
6 Mar 2023 19:24:52.402,6 Mar 2023 19:25:00.854,8.452,"Earth","10203","10203","Penumbra","Umbra",2146.381
6 Mar 2023 19:25:00.854,6 Mar 2023 20:00:30.356,2129.502,"Earth","10203","10203","Umbra","Umbra",2146.381
6 Mar 2023 20:00:30.356,6 Mar 2023 20:00:38.783,8.427,"Earth","10203","10203","Penumbra","Umbra",2146.381
6 Mar 2023 20:59:05.139,6 Mar 2023 20:59:13.596,8.458,"Earth","10204","10204","Penumbra","Umbra",2146.383
6 Mar 2023 20:59:13.596,6 Mar 2023 21:34:43.095,2129.499,"Earth","10204","10204","Umbra","Umbra",2146.383
6 Mar 2023 21:34:43.095,6 Mar 2023 21:34:51.522,8.427,"Earth","10204","10204","Penumbra","Umbra",2146.383
6 Mar 2023 22:33:17.884,6 Mar 2023 22:33:26.338,8.454,"Earth","10205","10205","Penumbra","Umbra",2146.377
6 Mar 2023 22:33:26.338,6 Mar 2023 23:08:55.834,2129.497,"Earth","10205","10205","Umbra","Umbra",2146.377
6 Mar 2023 23:08:55.834,6 Mar 2023 23:09:04.261,8.427,"Earth","10205","10205","Penumbra","Umbra",2146.377
7 Mar 2023 00:07:30.623,7 Mar 2023 00:07:39.078,8.455,"Earth","10206","10206","Penumbra","Umbra",2146.377
7 Mar 2023 00:07:39.078,7 Mar 2023 00:43:08.574,2129.496,"Earth","10206","10206","Umbra","Umbra",2146.377
7 Mar 2023 00:43:08.574,7 Mar 2023 00:43:17.000,8.427,"Earth","10206","10206","Penumbra","Umbra",2146.377
7 Mar 2023 01:41:43.364,7 Mar 2023 01:41:51.818,8.455,"Earth","10207","10207","Penumbra","Umbra",2146.376
7 Mar 2023 01:41:51.818,7 Mar 2023 02:17:21.313,2129.495,"Earth","10207","10207","Umbra","Umbra",2146.376
7 Mar 2023 02:17:21.313,7 Mar 2023 02:17:29.740,8.427,"Earth","10207","10207","Penumbra","Umbra",2146.376
7 Mar 2023 03:15:56.104,7 Mar 2023 03:16:04.558,8.453,"Earth","10208","10208","Penumbra","Umbra",2146.375
7 Mar 2023 03:16:04.558,7 Mar 2023 03:51:34.053,2129.495,"Earth","10208","10208","Umbra","Umbra",2146.375
7 Mar 2023 03:51:34.053,7 Mar 2023 03:51:42.479,8.427,"Earth","10208","10208","Penumbra","Umbra",2146.375
7 Mar 2023 04:50:08.844,7 Mar 2023 04:50:17.300,8.456,"Earth","10209","10209","Penumbra","Umbra",2146.375
7 Mar 2023 04:50:17.300,7 Mar 2023 05:25:46.792,2129.492,"Earth","10209","10209","Umbra","Umbra",2146.375
7 Mar 2023 05:25:46.792,7 Mar 2023 05:25:55.219,8.426,"Earth","10209","10209","Penumbra","Umbra",2146.375
7 Mar 2023 06:24:21.585,7 Mar 2023 06:24:30.040,8.455,"Earth","10210","10210","Penumbra","Umbra",2146.374
7 Mar 2023 06:24:30.040,7 Mar 2023 06:59:59.532,2129.492,"Earth","10210","10210","Umbra","Umbra",2146.374
7 Mar 2023 06:59:59.532,7 Mar 2023 07:00:07.958,8.426,"Earth","10210","10210","Penumbra","Umbra",2146.374
7 Mar 2023 07:58:34.326,7 Mar 2023 07:58:42.778,8.452,"Earth","10211","10211","Penumbra","Umbra",2146.373
7 Mar 2023 07:58:42.778,7 Mar 2023 08:34:12.272,2129.494,"Earth","10211","10211","Umbra","Umbra",2146.373
7 Mar 2023 08:34:12.272,7 Mar 2023 08:34:20.698,8.426,"Earth","10211","10211","Penumbra","Umbra",2146.373
7 Mar 2023 09:32:47.067,7 Mar 2023 09:32:55.520,8.454,"Earth","10212","10212","Penumbra","Umbra",2146.372
7 Mar 2023 09:32:55.520,7 Mar 2023 10:08:25.012,2129.492,"Earth","10212","10212","Umbra","Umbra",2146.372
7 Mar 2023 10:08:25.012,7 Mar 2023 10:08:33.438,8.426,"Earth","10212","10212","Penumbra","Umbra",2146.372
7 Mar 2023 11:06:59.809,7 Mar 2023 11:07:08.261,8.451,"Earth","10213","10213","Penumbra","Umbra",2146.369
7 Mar 2023 11:07:08.261,7 Mar 2023 11:42:37.752,2129.491,"Earth","10213","10213","Umbra","Umbra",2146.369
7 Mar 2023 11:42:37.752,7 Mar 2023 11:42:46.178,8.426,"Earth","10213","10213","Penumbra","Umbra",2146.369
7 Mar 2023 12:41:12.551,7 Mar 2023 12:41:21.004,8.453,"Earth","10214","10214","Penumbra","Umbra",2146.368
7 Mar 2023 12:41:21.004,7 Mar 2023 13:16:50.492,2129.488,"Earth","10214","10214","Umbra","Umbra",2146.368
7 Mar 2023 13:16:50.492,7 Mar 2023 13:16:58.918,8.426,"Earth","10214","10214","Penumbra","Umbra",2146.368
7 Mar 2023 14:15:25.290,7 Mar 2023 14:15:33.745,8.455,"Earth","10215","10215","Penumbra","Umbra",2146.369
7 Mar 2023 14:15:33.745,7 Mar 2023 14:51:03.232,2129.487,"Earth","10215","10215","Umbra","Umbra",2146.369
7 Mar 2023 14:51:03.232,7 Mar 2023 14:51:11.658,8.426,"Earth","10215","10215","Penumbra","Umbra",2146.369
7 Mar 2023 15:49:38.031,7 Mar 2023 15:49:46.484,8.453,"Earth","10216","10216","Penumbra","Umbra",2146.368
7 Mar 2023 15:49:46.484,7 Mar 2023 16:25:15.973,2129.489,"Earth","10216","10216","Umbra","Umbra",2146.368
7 Mar 2023 16:25:15.973,7 Mar 2023 16:25:24.399,8.426,"Earth","10216","10216","Penumbra","Umbra",2146.368
7 Mar 2023 17:23:50.775,7 Mar 2023 17:23:59.225,8.450,"Earth","10217","10217","Penumbra","Umbra",2146.364
7 Mar 2023 17:23:59.225,7 Mar 2023 17:59:28.713,2129.488,"Earth","10217","10217","Umbra","Umbra",2146.364
7 Mar 2023 17:59:28.713,7 Mar 2023 17:59:37.139,8.426,"Earth","10217","10217","Penumbra","Umbra",2146.364
7 Mar 2023 18:58:03.514,7 Mar 2023 18:58:11.969,8.455,"Earth","10218","10218","Penumbra","Umbra",2146.366
7 Mar 2023 18:58:11.969,7 Mar 2023 19:33:41.454,2129.485,"Earth","10218","10218","Umbra","Umbra",2146.366
7 Mar 2023 19:33:41.454,7 Mar 2023 19:33:49.879,8.426,"Earth","10218","10218","Penumbra","Umbra",2146.366
7 Mar 2023 20:32:16.258,7 Mar 2023 20:32:24.710,8.452,"Earth","10219","10219","Penumbra","Umbra",2146.362
7 Mar 2023 20:32:24.710,7 Mar 2023 21:07:54.194,2129.484,"Earth","10219","10219","Umbra","Umbra",2146.362
7 Mar 2023 21:07:54.194,7 Mar 2023 21:08:02.620,8.426,"Earth","10219","10219","Penumbra","Umbra",2146.362
7 Mar 2023 22:06:28.997,7 Mar 2023 22:06:37.449,8.453,"Earth","10220","10220","Penumbra","Umbra",2146.364
7 Mar 2023 22:06:37.449,7 Mar 2023 22:42:06.935,2129.486,"Earth","10220","10220","Umbra","Umbra",2146.364
7 Mar 2023 22:42:06.935,7 Mar 2023 22:42:15.361,8.426,"Earth","10220","10220","Penumbra","Umbra",2146.364
7 Mar 2023 23:40:41.742,7 Mar 2023 23:40:50.190,8.448,"Earth","10221","10221","Penumbra","Umbra",2146.360
7 Mar 2023 23:40:50.190,8 Mar 2023 00:16:19.676,2129.486,"Earth","10221","10221","Umbra","Umbra",2146.360
8 Mar 2023 00:16:19.676,8 Mar 2023 00:16:28.101,8.425,"Earth","10221","10221","Penumbra","Umbra",2146.360
8 Mar 2023 01:14:54.480,8 Mar 2023 01:15:02.935,8.455,"Earth","10222","10222","Penumbra","Umbra",2146.362
8 Mar 2023 01:15:02.935,8 Mar 2023 01:50:32.417,2129.482,"Earth","10222","10222","Umbra","Umbra",2146.362
8 Mar 2023 01:50:32.417,8 Mar 2023 01:50:40.842,8.425,"Earth","10222","10222","Penumbra","Umbra",2146.362
8 Mar 2023 02:49:07.226,8 Mar 2023 02:49:15.677,8.451,"Earth","10223","10223","Penumbra","Umbra",2146.357
8 Mar 2023 02:49:15.677,8 Mar 2023 03:24:45.158,2129.481,"Earth","10223","10223","Umbra","Umbra",2146.357
8 Mar 2023 03:24:45.158,8 Mar 2023 03:24:53.583,8.425,"Earth","10223","10223","Penumbra","Umbra",2146.357
8 Mar 2023 04:23:19.965,8 Mar 2023 04:23:28.416,8.451,"Earth","10224","10224","Penumbra","Umbra",2146.359
8 Mar 2023 04:23:28.416,8 Mar 2023 04:58:57.899,2129.483,"Earth","10224","10224","Umbra","Umbra",2146.359
8 Mar 2023 04:58:57.899,8 Mar 2023 04:59:06.324,8.425,"Earth","10224","10224","Penumbra","Umbra",2146.359
8 Mar 2023 05:57:32.707,8 Mar 2023 05:57:41.158,8.451,"Earth","10225","10225","Penumbra","Umbra",2146.358
8 Mar 2023 05:57:41.158,8 Mar 2023 06:33:10.640,2129.482,"Earth","10225","10225","Umbra","Umbra",2146.358
8 Mar 2023 06:33:10.640,8 Mar 2023 06:33:19.065,8.425,"Earth","10225","10225","Penumbra","Umbra",2146.358
8 Mar 2023 07:31:45.452,8 Mar 2023 07:31:53.903,8.451,"Earth","10226","10226","Penumbra","Umbra",2146.354
8 Mar 2023 07:31:53.903,8 Mar 2023 08:07:23.381,2129.478,"Earth","10226","10226","Umbra","Umbra",2146.354
8 Mar 2023 08:07:23.381,8 Mar 2023 08:07:31.806,8.425,"Earth","10226","10226","Penumbra","Umbra",2146.354
8 Mar 2023 09:05:58.192,8 Mar 2023 09:06:06.645,8.453,"Earth","10227","10227","Penumbra","Umbra",2146.356
8 Mar 2023 09:06:06.645,8 Mar 2023 09:41:36.123,2129.478,"Earth","10227","10227","Umbra","Umbra",2146.356
8 Mar 2023 09:41:36.123,8 Mar 2023 09:41:44.548,8.425,"Earth","10227","10227","Penumbra","Umbra",2146.356
8 Mar 2023 10:40:10.937,8 Mar 2023 10:40:19.387,8.450,"Earth","10228","10228","Penumbra","Umbra",2146.352
8 Mar 2023 10:40:19.387,8 Mar 2023 11:15:48.864,2129.477,"Earth","10228","10228","Umbra","Umbra",2146.352
8 Mar 2023 11:15:48.864,8 Mar 2023 11:15:57.289,8.425,"Earth","10228","10228","Penumbra","Umbra",2146.352
8 Mar 2023 12:14:23.679,8 Mar 2023 12:14:32.130,8.450,"Earth","10229","10229","Penumbra","Umbra",2146.351
8 Mar 2023 12:14:32.130,8 Mar 2023 12:50:01.606,2129.476,"Earth","10229","10229","Umbra","Umbra",2146.351
8 Mar 2023 12:50:01.606,8 Mar 2023 12:50:10.031,8.425,"Earth","10229","10229","Penumbra","Umbra",2146.351
8 Mar 2023 13:48:36.422,8 Mar 2023 13:48:44.868,8.446,"Earth","10230","10230","Penumbra","Umbra",2146.350
8 Mar 2023 13:48:44.868,8 Mar 2023 14:24:14.347,2129.479,"Earth","10230","10230","Umbra","Umbra",2146.350
8 Mar 2023 14:24:14.347,8 Mar 2023 14:24:22.772,8.425,"Earth","10230","10230","Penumbra","Umbra",2146.350
8 Mar 2023 15:22:49.161,8 Mar 2023 15:22:57.614,8.453,"Earth","10231","10231","Penumbra","Umbra",2146.354
8 Mar 2023 15:22:57.614,8 Mar 2023 15:58:27.089,2129.475,"Earth","10231","10231","Umbra","Umbra",2146.354
8 Mar 2023 15:58:27.089,8 Mar 2023 15:58:35.515,8.426,"Earth","10231","10231","Penumbra","Umbra",2146.354
8 Mar 2023 16:57:01.904,8 Mar 2023 16:57:10.353,8.449,"Earth","10232","10232","Penumbra","Umbra",2146.353
8 Mar 2023 16:57:10.353,8 Mar 2023 17:32:39.830,2129.477,"Earth","10232","10232","Umbra","Umbra",2146.353
8 Mar 2023 17:32:39.830,8 Mar 2023 17:32:48.257,8.427,"Earth","10232","10232","Penumbra","Umbra",2146.353
8 Mar 2023 18:31:14.650,8 Mar 2023 18:31:23.100,8.449,"Earth","10233","10233","Penumbra","Umbra",2146.347
8 Mar 2023 18:31:23.100,8 Mar 2023 19:06:52.574,2129.475,"Earth","10233","10233","Umbra","Umbra",2146.347
8 Mar 2023 19:06:52.574,8 Mar 2023 19:07:00.997,8.423,"Earth","10233","10233","Penumbra","Umbra",2146.347
8 Mar 2023 20:05:27.393,8 Mar 2023 20:05:35.842,8.449,"Earth","10234","10234","Penumbra","Umbra",2146.346
8 Mar 2023 20:05:35.842,8 Mar 2023 20:41:05.315,2129.473,"Earth","10234","10234","Umbra","Umbra",2146.346
8 Mar 2023 20:41:05.315,8 Mar 2023 20:41:13.739,8.424,"Earth","10234","10234","Penumbra","Umbra",2146.346
8 Mar 2023 21:39:40.136,8 Mar 2023 21:39:48.585,8.449,"Earth","10235","10235","Penumbra","Umbra",2146.346
8 Mar 2023 21:39:48.585,8 Mar 2023 22:15:18.057,2129.472,"Earth","10235","10235","Umbra","Umbra",2146.346
8 Mar 2023 22:15:18.057,8 Mar 2023 22:15:26.482,8.425,"Earth","10235","10235","Penumbra","Umbra",2146.346
8 Mar 2023 23:13:52.879,8 Mar 2023 23:14:01.328,8.449,"Earth","10236","10236","Penumbra","Umbra",2146.345
8 Mar 2023 23:14:01.328,8 Mar 2023 23:49:30.800,2129.472,"Earth","10236","10236","Umbra","Umbra",2146.345
8 Mar 2023 23:49:30.800,8 Mar 2023 23:49:39.225,8.424,"Earth","10236","10236","Penumbra","Umbra",2146.345
9 Mar 2023 00:48:05.622,9 Mar 2023 00:48:14.071,8.448,"Earth","10237","10237","Penumbra","Umbra",2146.343
9 Mar 2023 00:48:14.071,9 Mar 2023 01:23:43.540,2129.470,"Earth","10237","10237","Umbra","Umbra",2146.343
9 Mar 2023 01:23:43.540,9 Mar 2023 01:23:51.965,8.425,"Earth","10237","10237","Penumbra","Umbra",2146.343
9 Mar 2023 02:22:18.366,9 Mar 2023 02:22:26.814,8.448,"Earth","10238","10238","Penumbra","Umbra",2146.344
9 Mar 2023 02:22:26.814,9 Mar 2023 02:57:56.284,2129.470,"Earth","10238","10238","Umbra","Umbra",2146.344
9 Mar 2023 02:57:56.284,9 Mar 2023 02:58:04.710,8.426,"Earth","10238","10238","Penumbra","Umbra",2146.344
9 Mar 2023 03:56:31.109,9 Mar 2023 03:56:39.557,8.448,"Earth","10239","10239","Penumbra","Umbra",2146.343
9 Mar 2023 03:56:39.557,9 Mar 2023 04:32:09.028,2129.471,"Earth","10239","10239","Umbra","Umbra",2146.343
9 Mar 2023 04:32:09.028,9 Mar 2023 04:32:17.452,8.424,"Earth","10239","10239","Penumbra","Umbra",2146.343
9 Mar 2023 05:30:43.852,9 Mar 2023 05:30:52.300,8.448,"Earth","10240","10240","Penumbra","Umbra",2146.343
9 Mar 2023 05:30:52.300,9 Mar 2023 06:06:21.771,2129.471,"Earth","10240","10240","Umbra","Umbra",2146.343
9 Mar 2023 06:06:21.771,9 Mar 2023 06:06:30.195,8.424,"Earth","10240","10240","Penumbra","Umbra",2146.343
9 Mar 2023 07:04:56.596,9 Mar 2023 07:05:05.043,8.448,"Earth","10241","10241","Penumbra","Umbra",2146.342
9 Mar 2023 07:05:05.043,9 Mar 2023 07:40:34.511,2129.468,"Earth","10241","10241","Umbra","Umbra",2146.342
9 Mar 2023 07:40:34.511,9 Mar 2023 07:40:42.937,8.426,"Earth","10241","10241","Penumbra","Umbra",2146.342
9 Mar 2023 08:39:09.339,9 Mar 2023 08:39:17.786,8.447,"Earth","10242","10242","Penumbra","Umbra",2146.338
9 Mar 2023 08:39:17.786,9 Mar 2023 09:14:47.256,2129.470,"Earth","10242","10242","Umbra","Umbra",2146.338
9 Mar 2023 09:14:47.256,9 Mar 2023 09:14:55.677,8.421,"Earth","10242","10242","Penumbra","Umbra",2146.338
9 Mar 2023 10:13:22.083,9 Mar 2023 10:13:30.530,8.447,"Earth","10243","10243","Penumbra","Umbra",2146.340
9 Mar 2023 10:13:30.530,9 Mar 2023 10:48:59.999,2129.470,"Earth","10243","10243","Umbra","Umbra",2146.340
9 Mar 2023 10:48:59.999,9 Mar 2023 10:49:08.423,8.424,"Earth","10243","10243","Penumbra","Umbra",2146.340
9 Mar 2023 11:47:34.826,9 Mar 2023 11:47:43.273,8.447,"Earth","10244","10244","Penumbra","Umbra",2146.336
9 Mar 2023 11:47:43.273,9 Mar 2023 12:23:12.743,2129.469,"Earth","10244","10244","Umbra","Umbra",2146.336
9 Mar 2023 12:23:12.743,9 Mar 2023 12:23:21.163,8.420,"Earth","10244","10244","Penumbra","Umbra",2146.336
9 Mar 2023 13:21:47.570,9 Mar 2023 13:21:56.017,8.447,"Earth","10245","10245","Penumbra","Umbra",2146.339
9 Mar 2023 13:21:56.017,9 Mar 2023 13:57:25.482,2129.465,"Earth","10245","10245","Umbra","Umbra",2146.339
9 Mar 2023 13:57:25.482,9 Mar 2023 13:57:33.909,8.427,"Earth","10245","10245","Penumbra","Umbra",2146.339
9 Mar 2023 14:56:00.314,9 Mar 2023 14:56:08.760,8.446,"Earth","10246","10246","Penumbra","Umbra",2146.335
9 Mar 2023 14:56:08.760,9 Mar 2023 15:31:38.225,2129.465,"Earth","10246","10246","Umbra","Umbra",2146.335
9 Mar 2023 15:31:38.225,9 Mar 2023 15:31:46.648,8.423,"Earth","10246","10246","Penumbra","Umbra",2146.335
9 Mar 2023 16:30:13.058,9 Mar 2023 16:30:21.504,8.446,"Earth","10247","10247","Penumbra","Umbra",2146.336
9 Mar 2023 16:30:21.504,9 Mar 2023 17:05:50.968,2129.464,"Earth","10247","10247","Umbra","Umbra",2146.336
9 Mar 2023 17:05:50.968,9 Mar 2023 17:05:59.394,8.426,"Earth","10247","10247","Penumbra","Umbra",2146.336
9 Mar 2023 18:04:25.802,9 Mar 2023 18:04:34.248,8.446,"Earth","10248","10248","Penumbra","Umbra",2146.333
9 Mar 2023 18:04:34.248,9 Mar 2023 18:40:03.711,2129.464,"Earth","10248","10248","Umbra","Umbra",2146.333
9 Mar 2023 18:40:03.711,9 Mar 2023 18:40:12.134,8.423,"Earth","10248","10248","Penumbra","Umbra",2146.333
9 Mar 2023 19:38:38.546,9 Mar 2023 19:38:46.992,8.446,"Earth","10249","10249","Penumbra","Umbra",2146.332
9 Mar 2023 19:38:46.992,9 Mar 2023 20:14:16.455,2129.463,"Earth","10249","10249","Umbra","Umbra",2146.332
9 Mar 2023 20:14:16.455,9 Mar 2023 20:14:24.878,8.423,"Earth","10249","10249","Penumbra","Umbra",2146.332
9 Mar 2023 21:12:51.290,9 Mar 2023 21:12:59.735,8.446,"Earth","10250","10250","Penumbra","Umbra",2146.334
9 Mar 2023 21:12:59.735,9 Mar 2023 21:48:29.200,2129.465,"Earth","10250","10250","Umbra","Umbra",2146.334
9 Mar 2023 21:48:29.200,9 Mar 2023 21:48:37.624,8.424,"Earth","10250","10250","Penumbra","Umbra",2146.334
9 Mar 2023 22:47:04.034,9 Mar 2023 22:47:12.479,8.445,"Earth","10251","10251","Penumbra","Umbra",2146.330
9 Mar 2023 22:47:12.479,9 Mar 2023 23:22:41.941,2129.462,"Earth","10251","10251","Umbra","Umbra",2146.330
9 Mar 2023 23:22:41.941,9 Mar 2023 23:22:50.364,8.423,"Earth","10251","10251","Penumbra","Umbra",2146.330
10 Mar 2023 00:21:16.778,10 Mar 2023 00:21:25.223,8.445,"Earth","10252","10252","Penumbra","Umbra",2146.329
10 Mar 2023 00:21:25.223,10 Mar 2023 00:56:54.685,2129.461,"Earth","10252","10252","Umbra","Umbra",2146.329
10 Mar 2023 00:56:54.685,10 Mar 2023 00:57:03.107,8.423,"Earth","10252","10252","Penumbra","Umbra",2146.329
10 Mar 2023 01:55:29.522,10 Mar 2023 01:55:37.967,8.445,"Earth","10253","10253","Penumbra","Umbra",2146.328
10 Mar 2023 01:55:37.967,10 Mar 2023 02:31:07.428,2129.461,"Earth","10253","10253","Umbra","Umbra",2146.328
10 Mar 2023 02:31:07.428,10 Mar 2023 02:31:15.851,8.423,"Earth","10253","10253","Penumbra","Umbra",2146.328
10 Mar 2023 03:29:42.267,10 Mar 2023 03:29:50.712,8.445,"Earth","10254","10254","Penumbra","Umbra",2146.328
10 Mar 2023 03:29:50.712,10 Mar 2023 04:05:20.172,2129.460,"Earth","10254","10254","Umbra","Umbra",2146.328
10 Mar 2023 04:05:20.172,10 Mar 2023 04:05:28.594,8.423,"Earth","10254","10254","Penumbra","Umbra",2146.328
10 Mar 2023 05:03:55.011,10 Mar 2023 05:04:03.456,8.445,"Earth","10255","10255","Penumbra","Umbra",2146.327
10 Mar 2023 05:04:03.456,10 Mar 2023 05:39:32.916,2129.460,"Earth","10255","10255","Umbra","Umbra",2146.327
10 Mar 2023 05:39:32.916,10 Mar 2023 05:39:41.338,8.422,"Earth","10255","10255","Penumbra","Umbra",2146.327
10 Mar 2023 06:38:07.756,10 Mar 2023 06:38:16.200,8.444,"Earth","10256","10256","Penumbra","Umbra",2146.326
10 Mar 2023 06:38:16.200,10 Mar 2023 07:13:45.659,2129.459,"Earth","10256","10256","Umbra","Umbra",2146.326
10 Mar 2023 07:13:45.659,10 Mar 2023 07:13:54.082,8.422,"Earth","10256","10256","Penumbra","Umbra",2146.326
10 Mar 2023 08:12:20.500,10 Mar 2023 08:12:28.944,8.444,"Earth","10257","10257","Penumbra","Umbra",2146.325
10 Mar 2023 08:12:28.944,10 Mar 2023 08:47:58.403,2129.459,"Earth","10257","10257","Umbra","Umbra",2146.325
10 Mar 2023 08:47:58.403,10 Mar 2023 08:48:06.825,8.422,"Earth","10257","10257","Penumbra","Umbra",2146.325
10 Mar 2023 09:46:33.245,10 Mar 2023 09:46:41.689,8.444,"Earth","10258","10258","Penumbra","Umbra",2146.324
10 Mar 2023 09:46:41.689,10 Mar 2023 10:22:11.147,2129.458,"Earth","10258","10258","Umbra","Umbra",2146.324
10 Mar 2023 10:22:11.147,10 Mar 2023 10:22:19.569,8.422,"Earth","10258","10258","Penumbra","Umbra",2146.324
10 Mar 2023 11:20:45.990,10 Mar 2023 11:20:54.433,8.444,"Earth","10259","10259","Penumbra","Umbra",2146.324
10 Mar 2023 11:20:54.433,10 Mar 2023 11:56:23.891,2129.458,"Earth","10259","10259","Umbra","Umbra",2146.324
10 Mar 2023 11:56:23.891,10 Mar 2023 11:56:32.313,8.422,"Earth","10259","10259","Penumbra","Umbra",2146.324
10 Mar 2023 12:54:58.734,10 Mar 2023 12:55:07.178,8.443,"Earth","10260","10260","Penumbra","Umbra",2146.323
10 Mar 2023 12:55:07.178,10 Mar 2023 13:30:36.635,2129.457,"Earth","10260","10260","Umbra","Umbra",2146.323
10 Mar 2023 13:30:36.635,10 Mar 2023 13:30:45.057,8.422,"Earth","10260","10260","Penumbra","Umbra",2146.323
10 Mar 2023 14:29:11.479,10 Mar 2023 14:29:19.922,8.443,"Earth","10261","10261","Penumbra","Umbra",2146.322
10 Mar 2023 14:29:19.922,10 Mar 2023 15:04:49.379,2129.457,"Earth","10261","10261","Umbra","Umbra",2146.322
10 Mar 2023 15:04:49.379,10 Mar 2023 15:04:57.801,8.422,"Earth","10261","10261","Penumbra","Umbra",2146.322
10 Mar 2023 16:03:24.224,10 Mar 2023 16:03:32.667,8.443,"Earth","10262","10262","Penumbra","Umbra",2146.321
10 Mar 2023 16:03:32.667,10 Mar 2023 16:39:02.123,2129.456,"Earth","10262","10262","Umbra","Umbra",2146.321
10 Mar 2023 16:39:02.123,10 Mar 2023 16:39:10.545,8.422,"Earth","10262","10262","Penumbra","Umbra",2146.321
10 Mar 2023 17:37:36.969,10 Mar 2023 17:37:45.408,8.439,"Earth","10263","10263","Penumbra","Umbra",2146.320
10 Mar 2023 17:37:45.408,10 Mar 2023 18:13:14.868,2129.459,"Earth","10263","10263","Umbra","Umbra",2146.320
10 Mar 2023 18:13:14.868,10 Mar 2023 18:13:23.289,8.422,"Earth","10263","10263","Penumbra","Umbra",2146.320
10 Mar 2023 19:11:49.710,10 Mar 2023 19:11:58.155,8.445,"Earth","10264","10264","Penumbra","Umbra",2146.323
10 Mar 2023 19:11:58.155,10 Mar 2023 19:47:27.612,2129.457,"Earth","10264","10264","Umbra","Umbra",2146.323
10 Mar 2023 19:47:27.612,10 Mar 2023 19:47:36.034,8.422,"Earth","10264","10264","Penumbra","Umbra",2146.323
10 Mar 2023 20:46:02.460,10 Mar 2023 20:46:10.901,8.441,"Earth","10265","10265","Penumbra","Umbra",2146.318
10 Mar 2023 20:46:10.901,10 Mar 2023 21:21:40.357,2129.455,"Earth","10265","10265","Umbra","Umbra",2146.318
10 Mar 2023 21:21:40.357,10 Mar 2023 21:21:48.778,8.422,"Earth","10265","10265","Penumbra","Umbra",2146.318
10 Mar 2023 22:20:15.204,10 Mar 2023 22:20:23.646,8.442,"Earth","10266","10266","Penumbra","Umbra",2146.318
10 Mar 2023 22:20:23.646,10 Mar 2023 22:55:53.101,2129.455,"Earth","10266","10266","Umbra","Umbra",2146.318
10 Mar 2023 22:55:53.101,10 Mar 2023 22:56:01.522,8.421,"Earth","10266","10266","Penumbra","Umbra",2146.318
10 Mar 2023 23:54:27.949,10 Mar 2023 23:54:36.391,8.442,"Earth","10267","10267","Penumbra","Umbra",2146.317
10 Mar 2023 23:54:36.391,11 Mar 2023 00:30:05.846,2129.454,"Earth","10267","10267","Umbra","Umbra",2146.317
11 Mar 2023 00:30:05.846,11 Mar 2023 00:30:14.267,8.421,"Earth","10267","10267","Penumbra","Umbra",2146.317
11 Mar 2023 01:28:40.695,11 Mar 2023 01:28:49.135,8.441,"Earth","10268","10268","Penumbra","Umbra",2146.317
11 Mar 2023 01:28:49.135,11 Mar 2023 02:04:18.590,2129.455,"Earth","10268","10268","Umbra","Umbra",2146.317
11 Mar 2023 02:04:18.590,11 Mar 2023 02:04:27.011,8.421,"Earth","10268","10268","Penumbra","Umbra",2146.317
11 Mar 2023 03:02:53.439,11 Mar 2023 03:03:01.883,8.444,"Earth","10269","10269","Penumbra","Umbra",2146.317
11 Mar 2023 03:03:01.883,11 Mar 2023 03:38:31.335,2129.452,"Earth","10269","10269","Umbra","Umbra",2146.317
11 Mar 2023 03:38:31.335,11 Mar 2023 03:38:39.756,8.421,"Earth","10269","10269","Penumbra","Umbra",2146.317
11 Mar 2023 04:37:06.184,11 Mar 2023 04:37:14.628,8.443,"Earth","10270","10270","Penumbra","Umbra",2146.317
11 Mar 2023 04:37:14.628,11 Mar 2023 05:12:44.080,2129.452,"Earth","10270","10270","Umbra","Umbra",2146.317
11 Mar 2023 05:12:44.080,11 Mar 2023 05:12:52.501,8.421,"Earth","10270","10270","Penumbra","Umbra",2146.317
11 Mar 2023 06:11:18.929,11 Mar 2023 06:11:27.372,8.443,"Earth","10271","10271","Penumbra","Umbra",2146.316
11 Mar 2023 06:11:27.372,11 Mar 2023 06:46:56.824,2129.453,"Earth","10271","10271","Umbra","Umbra",2146.316
11 Mar 2023 06:46:56.824,11 Mar 2023 06:47:05.246,8.421,"Earth","10271","10271","Penumbra","Umbra",2146.316
11 Mar 2023 07:45:31.676,11 Mar 2023 07:45:40.116,8.439,"Earth","10272","10272","Penumbra","Umbra",2146.314
11 Mar 2023 07:45:40.116,11 Mar 2023 08:21:09.569,2129.454,"Earth","10272","10272","Umbra","Umbra",2146.314
11 Mar 2023 08:21:09.569,11 Mar 2023 08:21:17.990,8.421,"Earth","10272","10272","Penumbra","Umbra",2146.314
11 Mar 2023 09:19:44.420,11 Mar 2023 09:19:52.863,8.442,"Earth","10273","10273","Penumbra","Umbra",2146.315
11 Mar 2023 09:19:52.863,11 Mar 2023 09:55:22.314,2129.452,"Earth","10273","10273","Umbra","Umbra",2146.315
11 Mar 2023 09:55:22.314,11 Mar 2023 09:55:30.735,8.421,"Earth","10273","10273","Penumbra","Umbra",2146.315
11 Mar 2023 10:53:57.168,11 Mar 2023 10:54:05.606,8.439,"Earth","10274","10274","Penumbra","Umbra",2146.313
11 Mar 2023 10:54:05.606,11 Mar 2023 11:29:35.059,2129.453,"Earth","10274","10274","Umbra","Umbra",2146.313
11 Mar 2023 11:29:35.059,11 Mar 2023 11:29:43.480,8.421,"Earth","10274","10274","Penumbra","Umbra",2146.313
11 Mar 2023 12:28:09.913,11 Mar 2023 12:28:18.351,8.438,"Earth","10275","10275","Penumbra","Umbra",2146.312
11 Mar 2023 12:28:18.351,11 Mar 2023 13:03:47.805,2129.453,"Earth","10275","10275","Umbra","Umbra",2146.312
11 Mar 2023 13:03:47.805,11 Mar 2023 13:03:56.225,8.421,"Earth","10275","10275","Penumbra","Umbra",2146.312
11 Mar 2023 14:02:22.657,11 Mar 2023 14:02:31.099,8.442,"Earth","10276","10276","Penumbra","Umbra",2146.313
11 Mar 2023 14:02:31.099,11 Mar 2023 14:38:00.550,2129.451,"Earth","10276","10276","Umbra","Umbra",2146.313
11 Mar 2023 14:38:00.550,11 Mar 2023 14:38:08.970,8.421,"Earth","10276","10276","Penumbra","Umbra",2146.313
11 Mar 2023 15:36:35.403,11 Mar 2023 15:36:43.845,8.442,"Earth","10277","10277","Penumbra","Umbra",2146.313
11 Mar 2023 15:36:43.845,11 Mar 2023 16:12:13.295,2129.450,"Earth","10277","10277","Umbra","Umbra",2146.313
11 Mar 2023 16:12:13.295,11 Mar 2023 16:12:21.715,8.420,"Earth","10277","10277","Penumbra","Umbra",2146.313
11 Mar 2023 17:10:48.148,11 Mar 2023 17:10:56.588,8.440,"Earth","10278","10278","Penumbra","Umbra",2146.312
11 Mar 2023 17:10:56.588,11 Mar 2023 17:46:26.040,2129.453,"Earth","10278","10278","Umbra","Umbra",2146.312
11 Mar 2023 17:46:26.040,11 Mar 2023 17:46:34.461,8.420,"Earth","10278","10278","Penumbra","Umbra",2146.312
11 Mar 2023 18:45:00.894,11 Mar 2023 18:45:09.333,8.439,"Earth","10279","10279","Penumbra","Umbra",2146.312
11 Mar 2023 18:45:09.333,11 Mar 2023 19:20:38.786,2129.452,"Earth","10279","10279","Umbra","Umbra",2146.312
11 Mar 2023 19:20:38.786,11 Mar 2023 19:20:47.206,8.420,"Earth","10279","10279","Penumbra","Umbra",2146.312
11 Mar 2023 20:19:13.643,11 Mar 2023 20:19:22.082,8.439,"Earth","10280","10280","Penumbra","Umbra",2146.309
11 Mar 2023 20:19:22.082,11 Mar 2023 20:54:51.531,2129.449,"Earth","10280","10280","Umbra","Umbra",2146.309
11 Mar 2023 20:54:51.531,11 Mar 2023 20:54:59.951,8.420,"Earth","10280","10280","Penumbra","Umbra",2146.309
11 Mar 2023 21:53:26.386,11 Mar 2023 21:53:34.827,8.442,"Earth","10281","10281","Penumbra","Umbra",2146.311
11 Mar 2023 21:53:34.827,11 Mar 2023 22:29:04.277,2129.449,"Earth","10281","10281","Umbra","Umbra",2146.311
11 Mar 2023 22:29:04.277,11 Mar 2023 22:29:12.697,8.420,"Earth","10281","10281","Penumbra","Umbra",2146.311
11 Mar 2023 23:27:39.135,11 Mar 2023 23:27:47.573,8.439,"Earth","10282","10282","Penumbra","Umbra",2146.307
11 Mar 2023 23:27:47.573,12 Mar 2023 00:03:17.022,2129.449,"Earth","10282","10282","Umbra","Umbra",2146.307
12 Mar 2023 00:03:17.022,12 Mar 2023 00:03:25.442,8.420,"Earth","10282","10282","Penumbra","Umbra",2146.307
12 Mar 2023 01:01:51.878,12 Mar 2023 01:02:00.319,8.441,"Earth","10283","10283","Penumbra","Umbra",2146.309
12 Mar 2023 01:02:00.319,12 Mar 2023 01:37:29.768,2129.448,"Earth","10283","10283","Umbra","Umbra",2146.309
12 Mar 2023 01:37:29.768,12 Mar 2023 01:37:38.188,8.420,"Earth","10283","10283","Penumbra","Umbra",2146.309
12 Mar 2023 02:36:04.623,12 Mar 2023 02:36:13.061,8.438,"Earth","10284","10284","Penumbra","Umbra",2146.310
12 Mar 2023 02:36:13.061,12 Mar 2023 03:11:42.513,2129.452,"Earth","10284","10284","Umbra","Umbra",2146.310
12 Mar 2023 03:11:42.513,12 Mar 2023 03:11:50.933,8.420,"Earth","10284","10284","Penumbra","Umbra",2146.310
12 Mar 2023 04:10:17.371,12 Mar 2023 04:10:25.809,8.438,"Earth","10285","10285","Penumbra","Umbra",2146.308
12 Mar 2023 04:10:25.809,12 Mar 2023 04:45:55.259,2129.450,"Earth","10285","10285","Umbra","Umbra",2146.308
12 Mar 2023 04:45:55.259,12 Mar 2023 04:46:03.679,8.420,"Earth","10285","10285","Penumbra","Umbra",2146.308
12 Mar 2023 05:44:30.120,12 Mar 2023 05:44:38.557,8.438,"Earth","10286","10286","Penumbra","Umbra",2146.305
12 Mar 2023 05:44:38.557,12 Mar 2023 06:20:08.005,2129.448,"Earth","10286","10286","Umbra","Umbra",2146.305
12 Mar 2023 06:20:08.005,12 Mar 2023 06:20:16.425,8.420,"Earth","10286","10286","Penumbra","Umbra",2146.305
12 Mar 2023 07:18:42.866,12 Mar 2023 07:18:51.303,8.438,"Earth","10287","10287","Penumbra","Umbra",2146.304
12 Mar 2023 07:18:51.303,12 Mar 2023 07:54:20.751,2129.447,"Earth","10287","10287","Umbra","Umbra",2146.304
12 Mar 2023 07:54:20.751,12 Mar 2023 07:54:29.170,8.420,"Earth","10287","10287","Penumbra","Umbra",2146.304
12 Mar 2023 08:52:55.612,12 Mar 2023 08:53:04.047,8.434,"Earth","10288","10288","Penumbra","Umbra",2146.304
12 Mar 2023 08:53:04.047,12 Mar 2023 09:28:33.497,2129.450,"Earth","10288","10288","Umbra","Umbra",2146.304
12 Mar 2023 09:28:33.497,12 Mar 2023 09:28:41.916,8.419,"Earth","10288","10288","Penumbra","Umbra",2146.304
12 Mar 2023 10:27:08.359,12 Mar 2023 10:27:16.793,8.434,"Earth","10289","10289","Penumbra","Umbra",2146.303
12 Mar 2023 10:27:16.793,12 Mar 2023 11:02:46.243,2129.450,"Earth","10289","10289","Umbra","Umbra",2146.303
12 Mar 2023 11:02:46.243,12 Mar 2023 11:02:54.662,8.419,"Earth","10289","10289","Penumbra","Umbra",2146.303
12 Mar 2023 12:01:21.105,12 Mar 2023 12:01:29.539,8.434,"Earth","10290","10290","Penumbra","Umbra",2146.303
12 Mar 2023 12:01:29.539,12 Mar 2023 12:36:58.989,2129.450,"Earth","10290","10290","Umbra","Umbra",2146.303
12 Mar 2023 12:36:58.989,12 Mar 2023 12:37:07.408,8.419,"Earth","10290","10290","Penumbra","Umbra",2146.303
12 Mar 2023 13:35:33.852,12 Mar 2023 13:35:42.288,8.437,"Earth","10291","10291","Penumbra","Umbra",2146.301
12 Mar 2023 13:35:42.288,12 Mar 2023 14:11:11.735,2129.446,"Earth","10291","10291","Umbra","Umbra",2146.301
12 Mar 2023 14:11:11.735,12 Mar 2023 14:11:20.153,8.418,"Earth","10291","10291","Penumbra","Umbra",2146.301
12 Mar 2023 15:09:46.598,12 Mar 2023 15:09:55.035,8.436,"Earth","10292","10292","Penumbra","Umbra",2146.303
12 Mar 2023 15:09:55.035,12 Mar 2023 15:45:24.480,2129.445,"Earth","10292","10292","Umbra","Umbra",2146.303
12 Mar 2023 15:45:24.480,12 Mar 2023 15:45:32.901,8.421,"Earth","10292","10292","Penumbra","Umbra",2146.303
12 Mar 2023 16:43:59.345,12 Mar 2023 16:44:07.781,8.436,"Earth","10293","10293","Penumbra","Umbra",2146.301
12 Mar 2023 16:44:07.781,12 Mar 2023 17:19:37.228,2129.447,"Earth","10293","10293","Umbra","Umbra",2146.301
12 Mar 2023 17:19:37.228,12 Mar 2023 17:19:45.646,8.418,"Earth","10293","10293","Penumbra","Umbra",2146.301
12 Mar 2023 18:18:12.092,12 Mar 2023 18:18:20.528,8.436,"Earth","10294","10294","Penumbra","Umbra",2146.301
12 Mar 2023 18:18:20.528,12 Mar 2023 18:53:49.973,2129.446,"Earth","10294","10294","Umbra","Umbra",2146.301
12 Mar 2023 18:53:49.973,12 Mar 2023 18:53:58.392,8.419,"Earth","10294","10294","Penumbra","Umbra",2146.301
12 Mar 2023 19:52:24.835,12 Mar 2023 19:52:33.271,8.436,"Earth","10295","10295","Penumbra","Umbra",2146.305
12 Mar 2023 19:52:33.271,12 Mar 2023 20:28:02.720,2129.449,"Earth","10295","10295","Umbra","Umbra",2146.305
12 Mar 2023 20:28:02.720,12 Mar 2023 20:28:11.140,8.420,"Earth","10295","10295","Penumbra","Umbra",2146.305
12 Mar 2023 21:26:37.583,12 Mar 2023 21:26:46.021,8.438,"Earth","10296","10296","Penumbra","Umbra",2146.303
12 Mar 2023 21:26:46.021,12 Mar 2023 22:02:15.467,2129.447,"Earth","10296","10296","Umbra","Umbra",2146.303
12 Mar 2023 22:02:15.467,12 Mar 2023 22:02:23.886,8.419,"Earth","10296","10296","Penumbra","Umbra",2146.303
12 Mar 2023 23:00:50.332,12 Mar 2023 23:00:58.767,8.435,"Earth","10297","10297","Penumbra","Umbra",2146.299
12 Mar 2023 23:00:58.767,12 Mar 2023 23:36:28.214,2129.447,"Earth","10297","10297","Umbra","Umbra",2146.299
12 Mar 2023 23:36:28.214,12 Mar 2023 23:36:36.631,8.417,"Earth","10297","10297","Penumbra","Umbra",2146.299
13 Mar 2023 00:35:03.079,13 Mar 2023 00:35:11.514,8.435,"Earth","10298","10298","Penumbra","Umbra",2146.299
13 Mar 2023 00:35:11.514,13 Mar 2023 01:10:40.961,2129.447,"Earth","10298","10298","Umbra","Umbra",2146.299
13 Mar 2023 01:10:40.961,13 Mar 2023 01:10:49.378,8.417,"Earth","10298","10298","Penumbra","Umbra",2146.299
13 Mar 2023 02:09:15.826,13 Mar 2023 02:09:24.258,8.432,"Earth","10299","10299","Penumbra","Umbra",2146.298
13 Mar 2023 02:09:24.258,13 Mar 2023 02:44:53.708,2129.449,"Earth","10299","10299","Umbra","Umbra",2146.298
13 Mar 2023 02:44:53.708,13 Mar 2023 02:45:02.124,8.416,"Earth","10299","10299","Penumbra","Umbra",2146.298
13 Mar 2023 03:43:28.573,13 Mar 2023 03:43:37.008,8.435,"Earth","10300","10300","Penumbra","Umbra",2146.300
13 Mar 2023 03:43:37.008,13 Mar 2023 04:19:06.454,2129.447,"Earth","10300","10300","Umbra","Umbra",2146.300
13 Mar 2023 04:19:06.454,13 Mar 2023 04:19:14.873,8.418,"Earth","10300","10300","Penumbra","Umbra",2146.300
13 Mar 2023 05:17:41.320,13 Mar 2023 05:17:49.754,8.434,"Earth","10301","10301","Penumbra","Umbra",2146.300
