data/STK/Satellite-Satellite-To-Facility-Esrange_Station_ESC-Sensor-Esrange_Access.csv

"Access","Start Time (UTCG)","Stop Time (UTCG)","Duration (sec)"
1,1 Mar 2023 01:14:21.845,1 Mar 2023 01:15:46.491,84.646
2,1 Mar 2023 08:54:33.424,1 Mar 2023 08:58:17.344,223.920
3,1 Mar 2023 10:28:51.504,1 Mar 2023 10:31:06.363,134.859
4,1 Mar 2023 23:13:28.969,1 Mar 2023 23:17:05.035,216.066
5,2 Mar 2023 00:47:05.956,2 Mar 2023 00:50:00.763,174.807
6,2 Mar 2023 08:28:15.835,2 Mar 2023 08:31:24.530,188.696
7,2 Mar 2023 10:01:26.927,2 Mar 2023 10:04:53.079,206.152
8,2 Mar 2023 22:47:08.896,2 Mar 2023 22:49:49.417,160.520
9,3 Mar 2023 00:20:10.478,3 Mar 2023 00:23:47.696,217.218
10,3 Mar 2023 08:02:19.849,3 Mar 2023 08:04:17.143,117.295
11,3 Mar 2023 09:34:28.927,3 Mar 2023 09:38:21.469,232.542
12,3 Mar 2023 23:53:23.851,3 Mar 2023 23:57:18.455,234.604
13,4 Mar 2023 09:07:48.117,4 Mar 2023 09:11:40.601,232.483
14,4 Mar 2023 10:43:09.055,4 Mar 2023 10:43:40.916,31.862
15,4 Mar 2023 23:26:44.920,4 Mar 2023 23:30:33.829,228.909
16,5 Mar 2023 01:00:39.234,5 Mar 2023 01:02:59.120,139.886
17,5 Mar 2023 08:41:22.551,5 Mar 2023 08:44:52.099,209.548
18,5 Mar 2023 10:15:04.499,5 Mar 2023 10:18:03.371,178.872
19,5 Mar 2023 23:00:16.315,5 Mar 2023 23:03:30.871,194.556
20,6 Mar 2023 00:33:36.860,6 Mar 2023 00:36:56.469,199.609
21,6 Mar 2023 08:15:14.126,6 Mar 2023 08:17:53.684,159.558
22,6 Mar 2023 09:47:55.490,6 Mar 2023 09:51:38.689,223.199
23,6 Mar 2023 22:34:12.769,6 Mar 2023 22:35:54.523,101.754
24,7 Mar 2023 00:06:46.214,7 Mar 2023 00:10:34.952,228.738
25,7 Mar 2023 07:49:50.171,7 Mar 2023 07:50:17.626,27.455
26,7 Mar 2023 09:21:06.575,7 Mar 2023 09:25:01.999,235.424
27,7 Mar 2023 23:40:03.350,7 Mar 2023 23:43:58.147,234.797
28,8 Mar 2023 01:14:21.873,8 Mar 2023 01:15:46.439,84.566
29,8 Mar 2023 08:54:33.417,8 Mar 2023 08:58:17.325,223.908
30,8 Mar 2023 10:28:51.469,8 Mar 2023 10:31:06.376,134.906
31,8 Mar 2023 23:13:28.948,8 Mar 2023 23:17:05.028,216.080
32,9 Mar 2023 00:47:05.958,9 Mar 2023 00:50:00.737,174.778
33,9 Mar 2023 08:28:15.835,9 Mar 2023 08:31:24.505,188.670
34,9 Mar 2023 10:01:26.906,9 Mar 2023 10:04:53.077,206.171
35,9 Mar 2023 22:47:08.866,9 Mar 2023 22:49:49.421,160.555
36,10 Mar 2023 00:20:10.473,10 Mar 2023 00:23:47.678,217.205
37,10 Mar 2023 08:02:19.867,10 Mar 2023 08:04:17.101,117.234
38,10 Mar 2023 09:34:28.913,10 Mar 2023 09:38:21.461,232.548
39,10 Mar 2023 23:53:23.840,10 Mar 2023 23:57:18.442,234.602
40,11 Mar 2023 09:07:48.111,11 Mar 2023 09:11:40.587,232.475
41,11 Mar 2023 10:43:08.912,11 Mar 2023 10:43:41.037,32.125
42,11 Mar 2023 23:26:44.903,11 Mar 2023 23:30:33.821,228.917
43,12 Mar 2023 01:00:39.246,12 Mar 2023 01:02:59.085,139.839
44,12 Mar 2023 08:41:22.549,12 Mar 2023 08:44:52.078,209.530
45,12 Mar 2023 10:15:04.473,12 Mar 2023 10:18:03.376,178.903
46,12 Mar 2023 23:00:16.290,12 Mar 2023 23:03:30.871,194.581
47,13 Mar 2023 00:33:36.859,13 Mar 2023 00:36:56.447,199.587
48,13 Mar 2023 08:15:14.135,13 Mar 2023 08:17:53.653,159.517
49,13 Mar 2023 09:47:55.472,13 Mar 2023 09:51:38.685,223.213
50,13 Mar 2023 22:34:12.718,13 Mar 2023 22:35:54.551,101.834
51,14 Mar 2023 00:06:46.207,14 Mar 2023 00:10:34.936,228.730
52,14 Mar 2023 07:49:50.326,14 Mar 2023 07:50:17.451,27.125
53,14 Mar 2023 09:21:06.564,14 Mar 2023 09:25:01.988,235.424
54,14 Mar 2023 23:40:03.337,14 Mar 2023 23:43:58.137,234.800
55,15 Mar 2023 01:14:21.911,15 Mar 2023 01:15:46.379,84.468
56,15 Mar 2023 08:54:33.411,15 Mar 2023 08:58:17.307,223.896
57,15 Mar 2023 10:28:51.427,15 Mar 2023 10:31:06.394,134.967
58,15 Mar 2023 23:13:28.928,15 Mar 2023 23:17:05.024,216.096
59,16 Mar 2023 00:47:05.964,16 Mar 2023 00:50:00.708,174.744
60,16 Mar 2023 08:28:15.838,16 Mar 2023 08:31:24.479,188.641
61,16 Mar 2023 10:01:26.884,16 Mar 2023 10:04:53.077,206.193
62,16 Mar 2023 22:47:08.833,16 Mar 2023 22:49:49.428,160.595
63,17 Mar 2023 00:20:10.469,17 Mar 2023 00:23:47.658,217.190
64,17 Mar 2023 08:02:19.889,17 Mar 2023 08:04:17.055,117.166
65,17 Mar 2023 09:34:28.899,17 Mar 2023 09:38:21.453,232.554
66,17 Mar 2023 23:53:23.830,17 Mar 2023 23:57:18.429,234.599
67,18 Mar 2023 09:07:48.101,18 Mar 2023 09:11:40.573,232.472
68,18 Mar 2023 10:43:08.761,18 Mar 2023 10:43:41.167,32.406
69,18 Mar 2023 23:26:44.887,18 Mar 2023 23:30:33.813,228.926
70,19 Mar 2023 01:00:39.260,19 Mar 2023 01:02:59.050,139.789
71,19 Mar 2023 08:41:22.547,19 Mar 2023 08:44:52.058,209.510
72,19 Mar 2023 10:15:04.446,19 Mar 2023 10:18:03.383,178.936
73,19 Mar 2023 23:00:16.268,19 Mar 2023 23:03:30.871,194.603
74,20 Mar 2023 00:33:36.860,20 Mar 2023 00:36:56.425,199.565
75,20 Mar 2023 08:15:14.141,20 Mar 2023 08:17:53.622,159.481
76,20 Mar 2023 09:47:55.455,20 Mar 2023 09:51:38.681,223.226
77,20 Mar 2023 22:34:12.669,20 Mar 2023 22:35:54.574,101.905
78,21 Mar 2023 00:06:46.201,21 Mar 2023 00:10:34.922,228.721
79,21 Mar 2023 07:49:50.476,21 Mar 2023 07:50:17.278,26.802
80,21 Mar 2023 09:21:06.554,21 Mar 2023 09:25:01.979,235.425
81,21 Mar 2023 23:40:03.326,21 Mar 2023 23:43:58.128,234.803
82,22 Mar 2023 01:14:21.949,22 Mar 2023 01:15:46.323,84.374
83,22 Mar 2023 08:54:33.408,22 Mar 2023 08:58:17.293,223.884
84,22 Mar 2023 10:28:51.396,22 Mar 2023 10:31:06.412,135.016
85,22 Mar 2023 23:13:28.910,22 Mar 2023 23:17:05.022,216.112
86,23 Mar 2023 00:47:05.972,23 Mar 2023 00:50:00.684,174.712
87,23 Mar 2023 08:28:15.843,23 Mar 2023 08:31:24.457,188.614
88,23 Mar 2023 10:01:26.866,23 Mar 2023 10:04:53.080,206.214
89,23 Mar 2023 22:47:08.803,23 Mar 2023 22:49:49.439,160.635
90,24 Mar 2023 00:20:10.468,24 Mar 2023 00:23:47.643,217.175
91,24 Mar 2023 08:02:19.912,24 Mar 2023 08:04:17.013,117.102
92,24 Mar 2023 09:34:28.888,24 Mar 2023 09:38:21.449,232.560
93,24 Mar 2023 23:53:23.824,24 Mar 2023 23:57:18.420,234.596
94,25 Mar 2023 09:07:48.097,25 Mar 2023 09:11:40.563,232.466
95,25 Mar 2023 10:43:08.613,25 Mar 2023 10:43:41.307,32.694
96,25 Mar 2023 23:26:44.874,25 Mar 2023 23:30:33.810,228.936
97,26 Mar 2023 01:00:39.280,26 Mar 2023 01:02:59.016,139.736
98,26 Mar 2023 08:41:22.550,26 Mar 2023 08:44:52.040,209.490
99,26 Mar 2023 10:15:04.423,26 Mar 2023 10:18:03.394,178.971
100,26 Mar 2023 23:00:16.246,26 Mar 2023 23:03:30.877,194.631
101,27 Mar 2023 00:33:36.866,27 Mar 2023 00:36:56.406,199.540
102,27 Mar 2023 08:15:14.160,27 Mar 2023 08:17:53.592,159.432
103,27 Mar 2023 09:47:55.442,27 Mar 2023 09:51:38.682,223.240
104,27 Mar 2023 22:34:12.618,27 Mar 2023 22:35:54.609,101.991
105,28 Mar 2023 00:06:46.198,28 Mar 2023 00:10:34.910,228.712
106,28 Mar 2023 07:49:50.655,28 Mar 2023 07:50:17.083,26.428
107,28 Mar 2023 09:21:06.548,28 Mar 2023 09:25:01.973,235.425
108,28 Mar 2023 23:40:03.316,28 Mar 2023 23:43:58.123,234.806
109,29 Mar 2023 01:14:21.997,29 Mar 2023 01:15:46.262,84.265
110,29 Mar 2023 08:54:33.408,29 Mar 2023 08:58:17.280,223.871
111,29 Mar 2023 10:28:51.361,29 Mar 2023 10:31:06.437,135.077
112,29 Mar 2023 23:13:28.893,29 Mar 2023 23:17:05.023,216.130
113,30 Mar 2023 00:47:05.984,30 Mar 2023 00:50:00.659,174.675
114,30 Mar 2023 08:28:15.852,30 Mar 2023 08:31:24.434,188.583
115,30 Mar 2023 10:01:26.849,30 Mar 2023 10:04:53.086,206.237
116,30 Mar 2023 22:47:08.773,30 Mar 2023 22:49:49.453,160.680
117,31 Mar 2023 00:20:10.470,31 Mar 2023 00:23:47.628,217.158
118,31 Mar 2023 08:02:19.941,31 Mar 2023 08:04:16.970,117.029
119,31 Mar 2023 09:34:28.879,31 Mar 2023 09:38:21.446,232.567
120,31 Mar 2023 23:53:23.818,31 Mar 2023 23:57:18.411,234.593

