data/STK/Satellite-Satellite-Sensor-Hyperscout2-To-AreaTarget-Europe_Access.csv

"Access","Start Time (UTCG)","Stop Time (UTCG)","Duration (sec)"
1,1 Mar 2023 01:15:15.889,1 Mar 2023 01:22:10.798,414.909
2,1 Mar 2023 08:51:02.296,1 Mar 2023 08:56:57.354,355.059
3,1 Mar 2023 10:20:29.178,1 Mar 2023 10:30:47.626,618.447
4,1 Mar 2023 11:55:38.071,1 Mar 2023 12:03:15.500,457.429
5,1 Mar 2023 23:14:54.587,1 Mar 2023 23:25:18.315,623.728
6,2 Mar 2023 00:48:20.578,2 Mar 2023 00:56:59.441,518.863
7,2 Mar 2023 08:27:11.836,2 Mar 2023 08:28:59.501,107.666
8,2 Mar 2023 09:54:20.832,2 Mar 2023 10:04:08.001,587.169
9,2 Mar 2023 11:27:34.714,2 Mar 2023 11:37:16.368,581.654
10,2 Mar 2023 22:48:27.629,2 Mar 2023 22:58:14.195,586.566
11,3 Mar 2023 00:21:37.465,3 Mar 2023 00:31:21.498,584.034
12,3 Mar 2023 09:28:41.399,3 Mar 2023 09:37:25.591,524.192
13,3 Mar 2023 11:00:27.605,3 Mar 2023 11:10:50.637,623.032
14,3 Mar 2023 22:22:25.986,3 Mar 2023 22:30:15.384,469.398
15,3 Mar 2023 23:54:58.184,4 Mar 2023 00:05:15.288,617.104
16,4 Mar 2023 01:28:50.741,4 Mar 2023 01:34:35.584,344.843
17,4 Mar 2023 09:03:27.894,4 Mar 2023 09:10:31.284,423.390
18,4 Mar 2023 10:33:45.742,4 Mar 2023 10:44:10.102,624.360
19,4 Mar 2023 12:10:16.962,4 Mar 2023 12:15:49.975,333.013
20,4 Mar 2023 23:28:13.708,4 Mar 2023 23:38:39.400,625.691
21,5 Mar 2023 01:01:46.339,5 Mar 2023 01:09:38.392,472.052
22,5 Mar 2023 08:38:47.440,5 Mar 2023 08:43:14.314,266.874
23,5 Mar 2023 10:07:21.162,5 Mar 2023 10:17:26.978,605.816
24,5 Mar 2023 11:41:27.587,5 Mar 2023 11:50:20.809,533.222
25,5 Mar 2023 23:01:38.943,5 Mar 2023 23:11:51.850,612.907
26,6 Mar 2023 00:34:57.706,6 Mar 2023 00:44:13.728,556.022
27,6 Mar 2023 09:41:27.744,6 Mar 2023 09:50:48.100,560.355
28,6 Mar 2023 11:13:55.402,6 Mar 2023 11:24:05.734,610.332
29,6 Mar 2023 22:35:22.194,6 Mar 2023 22:44:23.323,541.129
30,7 Mar 2023 00:08:18.584,7 Mar 2023 00:18:22.237,603.653
31,7 Mar 2023 01:42:35.692,7 Mar 2023 01:46:47.701,252.010
32,7 Mar 2023 09:16:01.429,7 Mar 2023 09:24:00.197,478.767
33,7 Mar 2023 10:47:06.338,7 Mar 2023 10:57:31.939,625.602
34,7 Mar 2023 22:09:47.587,7 Mar 2023 22:15:41.731,354.144
35,7 Mar 2023 23:41:35.947,7 Mar 2023 23:51:59.894,623.948
36,8 Mar 2023 01:15:15.887,8 Mar 2023 01:22:10.767,414.880
37,8 Mar 2023 08:51:02.308,8 Mar 2023 08:56:57.321,355.013
38,8 Mar 2023 10:20:29.168,8 Mar 2023 10:30:47.613,618.445
39,8 Mar 2023 11:55:38.041,8 Mar 2023 12:03:15.511,457.470
40,8 Mar 2023 23:14:54.570,8 Mar 2023 23:25:18.303,623.732
41,9 Mar 2023 00:48:20.570,9 Mar 2023 00:56:59.420,518.849
42,9 Mar 2023 08:27:11.957,9 Mar 2023 08:28:59.359,107.402
43,9 Mar 2023 09:54:20.824,9 Mar 2023 10:04:07.987,587.163
44,9 Mar 2023 11:27:34.697,9 Mar 2023 11:37:16.366,581.670
45,9 Mar 2023 22:48:27.605,9 Mar 2023 22:58:14.183,586.579
46,10 Mar 2023 00:21:37.452,10 Mar 2023 00:31:21.482,584.030
47,10 Mar 2023 09:28:41.396,10 Mar 2023 09:37:25.574,524.178
48,10 Mar 2023 11:00:27.593,10 Mar 2023 11:10:50.632,623.039
49,10 Mar 2023 22:22:25.954,10 Mar 2023 22:30:15.384,469.430
50,10 Mar 2023 23:54:58.174,11 Mar 2023 00:05:15.275,617.102
51,11 Mar 2023 01:28:50.751,11 Mar 2023 01:34:35.546,344.796
52,11 Mar 2023 09:03:27.902,11 Mar 2023 09:10:31.259,423.357
53,11 Mar 2023 10:33:45.728,11 Mar 2023 10:44:10.091,624.362
54,11 Mar 2023 12:10:16.919,11 Mar 2023 12:15:50.005,333.087
55,11 Mar 2023 23:28:13.696,11 Mar 2023 23:38:39.388,625.693
56,12 Mar 2023 01:01:46.337,12 Mar 2023 01:09:38.366,472.029
57,12 Mar 2023 08:38:47.470,12 Mar 2023 08:43:14.267,266.797
58,12 Mar 2023 10:07:21.153,12 Mar 2023 10:17:26.968,605.815
59,12 Mar 2023 11:41:27.567,12 Mar 2023 11:50:20.816,533.249
60,12 Mar 2023 23:01:38.922,12 Mar 2023 23:11:51.840,612.918
61,13 Mar 2023 00:34:57.699,13 Mar 2023 00:44:13.711,556.012
62,13 Mar 2023 09:41:27.739,13 Mar 2023 09:50:48.082,560.343
63,13 Mar 2023 11:13:55.387,13 Mar 2023 11:24:05.734,610.348
64,13 Mar 2023 22:35:22.163,13 Mar 2023 22:44:23.320,541.157
65,14 Mar 2023 00:08:18.572,14 Mar 2023 00:18:22.223,603.651
66,14 Mar 2023 01:42:35.716,14 Mar 2023 01:46:47.649,251.934
67,14 Mar 2023 09:16:01.435,14 Mar 2023 09:24:00.175,478.740
68,14 Mar 2023 10:47:06.325,14 Mar 2023 10:57:31.931,625.606
69,14 Mar 2023 22:09:47.534,14 Mar 2023 22:15:41.749,354.214
70,14 Mar 2023 23:41:35.934,14 Mar 2023 23:51:59.883,623.949
71,15 Mar 2023 01:15:15.890,15 Mar 2023 01:22:10.736,414.846
72,15 Mar 2023 08:51:02.323,15 Mar 2023 08:56:57.290,354.967
73,15 Mar 2023 10:20:29.157,15 Mar 2023 10:30:47.601,618.444
74,15 Mar 2023 11:55:38.010,15 Mar 2023 12:03:15.526,457.517
75,15 Mar 2023 23:14:54.551,15 Mar 2023 23:25:18.290,623.739
76,16 Mar 2023 00:48:20.564,16 Mar 2023 00:56:59.397,518.833
77,16 Mar 2023 08:27:12.100,16 Mar 2023 08:28:59.198,107.098
78,16 Mar 2023 09:54:20.821,16 Mar 2023 10:04:07.977,587.156
79,16 Mar 2023 11:27:34.681,16 Mar 2023 11:37:16.369,581.688
80,16 Mar 2023 22:48:27.582,16 Mar 2023 22:58:14.175,586.593
81,17 Mar 2023 00:21:37.440,17 Mar 2023 00:31:21.464,584.025
82,17 Mar 2023 09:28:41.397,17 Mar 2023 09:37:25.558,524.161
83,17 Mar 2023 11:00:27.583,17 Mar 2023 11:10:50.626,623.044
84,17 Mar 2023 22:22:25.914,17 Mar 2023 22:30:15.387,469.474
85,17 Mar 2023 23:54:58.161,18 Mar 2023 00:05:15.262,617.101
86,18 Mar 2023 01:28:50.761,18 Mar 2023 01:34:35.506,344.746
87,18 Mar 2023 09:03:27.915,18 Mar 2023 09:10:31.232,423.317
88,18 Mar 2023 10:33:45.718,18 Mar 2023 10:44:10.079,624.361
89,18 Mar 2023 12:10:16.875,18 Mar 2023 12:15:50.037,333.162
90,18 Mar 2023 23:28:13.680,18 Mar 2023 23:38:39.377,625.697
91,19 Mar 2023 01:01:46.338,19 Mar 2023 01:09:38.341,472.002
92,19 Mar 2023 08:38:47.506,19 Mar 2023 08:43:14.222,266.716
93,19 Mar 2023 10:07:21.147,19 Mar 2023 10:17:26.957,605.810
94,19 Mar 2023 11:41:27.548,19 Mar 2023 11:50:20.823,533.275
95,19 Mar 2023 23:01:38.902,19 Mar 2023 23:11:51.830,612.927
96,20 Mar 2023 00:34:57.690,20 Mar 2023 00:44:13.691,556.001
97,20 Mar 2023 09:41:27.739,20 Mar 2023 09:50:48.068,560.330
98,20 Mar 2023 11:13:55.375,20 Mar 2023 11:24:05.732,610.357
99,20 Mar 2023 22:35:22.133,20 Mar 2023 22:44:23.316,541.182
100,21 Mar 2023 00:08:18.563,21 Mar 2023 00:18:22.207,603.644
101,21 Mar 2023 01:42:35.741,21 Mar 2023 01:46:47.598,251.858
102,21 Mar 2023 09:16:01.442,21 Mar 2023 09:24:00.156,478.714
103,21 Mar 2023 10:47:06.317,21 Mar 2023 10:57:31.924,625.607
104,21 Mar 2023 22:09:47.484,21 Mar 2023 22:15:41.767,354.283
105,21 Mar 2023 23:41:35.927,21 Mar 2023 23:51:59.877,623.951
106,22 Mar 2023 01:15:15.895,22 Mar 2023 01:22:10.708,414.813
107,22 Mar 2023 08:51:02.339,22 Mar 2023 08:56:57.259,354.920
108,22 Mar 2023 10:20:29.151,22 Mar 2023 10:30:47.591,618.440
109,22 Mar 2023 11:55:37.984,22 Mar 2023 12:03:15.543,457.559
110,22 Mar 2023 23:14:54.535,22 Mar 2023 23:25:18.279,623.744
111,23 Mar 2023 00:48:20.560,23 Mar 2023 00:56:59.378,518.818
112,23 Mar 2023 08:27:12.242,23 Mar 2023 08:28:59.048,106.806
113,23 Mar 2023 09:54:20.818,23 Mar 2023 10:04:07.968,587.150
114,23 Mar 2023 11:27:34.669,23 Mar 2023 11:37:16.374,581.705
115,23 Mar 2023 22:48:27.559,23 Mar 2023 22:58:14.175,586.616
116,24 Mar 2023 00:21:37.434,24 Mar 2023 00:31:21.451,584.017
117,24 Mar 2023 09:28:41.402,24 Mar 2023 09:37:25.544,524.142
118,24 Mar 2023 11:00:27.576,24 Mar 2023 11:10:50.626,623.051
119,24 Mar 2023 22:22:25.881,24 Mar 2023 22:30:15.394,469.512
120,24 Mar 2023 23:54:58.155,25 Mar 2023 00:05:15.252,617.097
121,25 Mar 2023 01:28:50.775,25 Mar 2023 01:34:35.471,344.696
122,25 Mar 2023 09:03:27.930,25 Mar 2023 09:10:31.209,423.280
123,25 Mar 2023 10:33:45.709,25 Mar 2023 10:44:10.072,624.363
124,25 Mar 2023 12:10:16.834,25 Mar 2023 12:15:50.077,333.243
125,25 Mar 2023 23:28:13.669,25 Mar 2023 23:38:39.372,625.703
126,26 Mar 2023 01:01:46.344,26 Mar 2023 01:09:38.317,471.973
127,26 Mar 2023 08:38:47.545,26 Mar 2023 08:43:14.175,266.630
128,26 Mar 2023 10:07:21.142,26 Mar 2023 10:17:26.948,605.805
129,26 Mar 2023 11:41:27.529,26 Mar 2023 11:50:20.839,533.311
130,26 Mar 2023 23:01:38.884,26 Mar 2023 23:11:51.824,612.940
131,27 Mar 2023 00:34:57.687,27 Mar 2023 00:44:13.676,555.990
132,27 Mar 2023 09:41:27.741,27 Mar 2023 09:50:48.058,560.317
133,27 Mar 2023 11:13:55.367,27 Mar 2023 11:24:05.738,610.372
134,27 Mar 2023 22:35:22.107,27 Mar 2023 22:44:23.320,541.213
135,28 Mar 2023 00:08:18.555,28 Mar 2023 00:18:22.198,603.643
136,28 Mar 2023 01:42:35.773,28 Mar 2023 01:46:47.548,251.775
137,28 Mar 2023 09:16:01.451,28 Mar 2023 09:24:00.136,478.685
138,28 Mar 2023 10:47:06.309,28 Mar 2023 10:57:31.920,625.611
139,28 Mar 2023 22:09:47.430,28 Mar 2023 22:15:41.794,354.365
140,28 Mar 2023 23:41:35.918,28 Mar 2023 23:51:59.869,623.950
141,29 Mar 2023 01:15:15.907,29 Mar 2023 01:22:10.679,414.772
142,29 Mar 2023 08:51:02.363,29 Mar 2023 08:56:57.231,354.868
143,29 Mar 2023 10:20:29.144,29 Mar 2023 10:30:47.586,618.442
144,29 Mar 2023 11:55:37.958,29 Mar 2023 12:03:15.565,457.607
145,29 Mar 2023 23:14:54.523,29 Mar 2023 23:25:18.272,623.749
146,30 Mar 2023 00:48:20.564,30 Mar 2023 00:56:59.361,518.797
147,30 Mar 2023 08:27:12.400,30 Mar 2023 08:28:58.881,106.482
148,30 Mar 2023 09:54:20.819,30 Mar 2023 10:04:07.960,587.141
149,30 Mar 2023 11:27:34.655,30 Mar 2023 11:37:16.385,581.731
150,30 Mar 2023 22:48:27.537,30 Mar 2023 22:58:14.171,586.634
151,31 Mar 2023 00:21:37.429,31 Mar 2023 00:31:21.440,584.011
152,31 Mar 2023 09:28:41.408,31 Mar 2023 09:37:25.530,524.122
153,31 Mar 2023 11:00:27.570,31 Mar 2023 11:10:50.626,623.056
154,31 Mar 2023 22:22:25.847,31 Mar 2023 22:30:15.402,469.556
155,31 Mar 2023 23:54:58.147,1 Apr 2023 00:00:00.000,301.853

