data/STK/Satellite-Satellite-To-Facility-Svalsat_SG_1_STDN_SG1S-Sensor-Svalbard_Access.csv

"Access","Start Time (UTCG)","Stop Time (UTCG)","Duration (sec)"
1,1 Mar 2023 01:11:16.040,1 Mar 2023 01:15:10.486,234.445
2,1 Mar 2023 02:44:41.772,1 Mar 2023 02:48:21.455,219.684
3,1 Mar 2023 04:17:58.919,1 Mar 2023 04:21:10.117,191.197
4,1 Mar 2023 05:50:55.332,1 Mar 2023 05:54:09.909,194.577
5,1 Mar 2023 07:23:45.146,1 Mar 2023 07:27:29.609,224.463
6,1 Mar 2023 08:57:03.192,1 Mar 2023 09:00:55.065,231.872
7,1 Mar 2023 10:31:30.668,1 Mar 2023 10:34:00.820,150.152
8,1 Mar 2023 23:11:37.345,1 Mar 2023 23:13:41.904,124.559
9,2 Mar 2023 00:44:35.362,2 Mar 2023 00:48:23.962,228.601
10,2 Mar 2023 02:18:00.258,2 Mar 2023 02:21:47.886,227.628
11,2 Mar 2023 03:51:21.579,2 Mar 2023 03:54:39.192,197.613
12,2 Mar 2023 05:24:24.031,2 Mar 2023 05:27:33.354,189.324
13,2 Mar 2023 06:57:12.470,2 Mar 2023 07:00:48.350,215.880
14,2 Mar 2023 08:30:18.797,2 Mar 2023 08:34:13.960,235.162
15,2 Mar 2023 10:04:20.179,2 Mar 2023 10:07:30.333,190.154
16,3 Mar 2023 00:17:56.217,3 Mar 2023 00:21:31.676,215.459
17,3 Mar 2023 01:51:18.438,3 Mar 2023 01:55:11.639,233.201
18,3 Mar 2023 03:24:42.583,3 Mar 2023 03:28:08.604,206.021
19,3 Mar 2023 04:57:51.357,3 Mar 2023 05:00:58.737,187.380
20,3 Mar 2023 06:30:41.279,3 Mar 2023 06:34:07.964,206.685
21,3 Mar 2023 08:03:38.775,3 Mar 2023 08:07:32.261,233.486
22,3 Mar 2023 09:37:20.062,3 Mar 2023 09:40:54.200,214.138
23,3 Mar 2023 23:51:19.803,3 Mar 2023 23:54:32.179,192.377
24,4 Mar 2023 01:24:36.718,4 Mar 2023 01:28:31.906,235.188
25,4 Mar 2023 02:58:02.284,4 Mar 2023 03:01:37.482,215.199
26,4 Mar 2023 04:31:16.882,4 Mar 2023 04:34:25.940,189.057
27,4 Mar 2023 06:04:10.682,4 Mar 2023 06:07:28.855,198.173
28,4 Mar 2023 07:37:02.301,4 Mar 2023 07:40:50.436,228.135
29,4 Mar 2023 09:10:27.300,4 Mar 2023 09:14:15.206,227.906
30,4 Mar 2023 10:45:12.266,4 Mar 2023 10:47:11.520,119.254
31,4 Mar 2023 23:24:48.713,4 Mar 2023 23:27:22.651,153.938
32,5 Mar 2023 00:57:55.548,5 Mar 2023 01:01:47.866,232.318
33,5 Mar 2023 02:31:21.075,5 Mar 2023 02:35:04.943,223.867
34,5 Mar 2023 04:04:40.476,5 Mar 2023 04:07:54.550,194.074
35,5 Mar 2023 05:37:39.812,5 Mar 2023 05:40:51.383,191.571
36,5 Mar 2023 07:10:28.568,5 Mar 2023 07:14:08.884,220.316
37,5 Mar 2023 08:43:40.387,5 Mar 2023 08:47:34.615,234.227
38,5 Mar 2023 10:17:53.791,5 Mar 2023 10:20:46.591,172.800
39,5 Mar 2023 22:58:33.173,5 Mar 2023 22:59:52.688,79.515
40,6 Mar 2023 00:31:15.529,6 Mar 2023 00:34:58.607,223.078
41,6 Mar 2023 02:04:39.359,6 Mar 2023 02:08:30.140,230.781
42,6 Mar 2023 03:38:02.268,6 Mar 2023 03:41:23.896,201.628
43,6 Mar 2023 05:11:07.898,6 Mar 2023 05:14:15.790,187.892
44,6 Mar 2023 06:43:56.743,6 Mar 2023 06:47:28.013,211.270
45,6 Mar 2023 08:16:58.286,6 Mar 2023 08:20:53.149,234.863
46,6 Mar 2023 09:50:49.057,6 Mar 2023 09:54:12.736,203.679
47,7 Mar 2023 00:04:37.548,7 Mar 2023 00:08:02.952,205.405
48,7 Mar 2023 01:37:57.532,7 Mar 2023 01:41:52.255,234.723
49,7 Mar 2023 03:11:22.569,7 Mar 2023 03:14:53.152,210.584
50,7 Mar 2023 04:44:34.361,7 Mar 2023 04:47:42.114,187.754
51,7 Mar 2023 06:17:25.959,7 Mar 2023 06:20:48.214,202.255
52,7 Mar 2023 07:50:20.140,7 Mar 2023 07:54:11.329,231.190
53,7 Mar 2023 09:23:52.866,7 Mar 2023 09:27:34.958,222.093
54,7 Mar 2023 10:59:03.746,7 Mar 2023 11:00:13.589,69.843
55,7 Mar 2023 23:38:03.295,7 Mar 2023 23:40:58.969,175.674
56,8 Mar 2023 01:11:16.024,8 Mar 2023 01:15:10.476,234.452
57,8 Mar 2023 02:44:41.762,8 Mar 2023 02:48:21.433,219.671
58,8 Mar 2023 04:17:58.919,8 Mar 2023 04:21:10.094,191.175
59,8 Mar 2023 05:50:55.332,8 Mar 2023 05:54:09.882,194.549
60,8 Mar 2023 07:23:45.137,8 Mar 2023 07:27:29.591,224.454
61,8 Mar 2023 08:57:03.177,8 Mar 2023 09:00:55.051,231.875
62,8 Mar 2023 10:31:30.634,8 Mar 2023 10:34:00.826,150.192
63,8 Mar 2023 23:11:37.304,8 Mar 2023 23:13:41.920,124.616
64,9 Mar 2023 00:44:35.343,9 Mar 2023 00:48:23.951,228.608
65,9 Mar 2023 02:18:00.250,9 Mar 2023 02:21:47.869,227.619
66,9 Mar 2023 03:51:21.580,9 Mar 2023 03:54:39.168,197.588
67,9 Mar 2023 05:24:24.031,9 Mar 2023 05:27:33.329,189.298
68,9 Mar 2023 06:57:12.465,9 Mar 2023 07:00:48.330,215.865
69,9 Mar 2023 08:30:18.784,9 Mar 2023 08:34:13.948,235.163
70,9 Mar 2023 10:04:20.153,9 Mar 2023 10:07:30.334,190.180
71,10 Mar 2023 00:17:56.197,10 Mar 2023 00:21:31.671,215.475
72,10 Mar 2023 01:51:18.428,10 Mar 2023 01:55:11.625,233.197
73,10 Mar 2023 03:24:42.580,10 Mar 2023 03:28:08.582,206.002
74,10 Mar 2023 04:57:51.358,10 Mar 2023 05:00:58.712,187.354
75,10 Mar 2023 06:30:41.276,10 Mar 2023 06:34:07.942,206.666
76,10 Mar 2023 08:03:38.768,10 Mar 2023 08:07:32.247,233.479
77,10 Mar 2023 09:37:20.042,10 Mar 2023 09:40:54.193,214.151
78,10 Mar 2023 23:51:19.778,10 Mar 2023 23:54:32.180,192.402
79,11 Mar 2023 01:24:36.705,11 Mar 2023 01:28:31.894,235.189
80,11 Mar 2023 02:58:02.280,11 Mar 2023 03:01:37.463,215.183
81,11 Mar 2023 04:31:16.884,11 Mar 2023 04:34:25.915,189.031
82,11 Mar 2023 06:04:10.682,11 Mar 2023 06:07:28.832,198.149
83,11 Mar 2023 07:37:02.294,11 Mar 2023 07:40:50.416,228.123
84,11 Mar 2023 09:10:27.284,11 Mar 2023 09:14:15.200,227.916
85,11 Mar 2023 10:45:12.223,11 Mar 2023 10:47:11.541,119.319
86,11 Mar 2023 23:24:48.680,11 Mar 2023 23:27:22.660,153.981
87,12 Mar 2023 00:57:55.533,12 Mar 2023 01:01:47.857,232.324
88,12 Mar 2023 02:31:21.070,12 Mar 2023 02:35:04.926,223.856
89,12 Mar 2023 04:04:40.477,12 Mar 2023 04:07:54.526,194.048
90,12 Mar 2023 05:37:39.814,12 Mar 2023 05:40:51.358,191.545
91,12 Mar 2023 07:10:28.564,12 Mar 2023 07:14:08.866,220.302
92,12 Mar 2023 08:43:40.374,12 Mar 2023 08:47:34.605,234.231
93,12 Mar 2023 10:17:53.762,12 Mar 2023 10:20:46.598,172.835
94,12 Mar 2023 22:58:33.107,12 Mar 2023 22:59:52.729,79.622
95,13 Mar 2023 00:31:15.511,13 Mar 2023 00:34:58.602,223.091
96,13 Mar 2023 02:04:39.351,13 Mar 2023 02:08:30.125,230.774
97,13 Mar 2023 03:38:02.268,13 Mar 2023 03:41:23.874,201.605
98,13 Mar 2023 05:11:07.901,13 Mar 2023 05:14:15.764,187.863
99,13 Mar 2023 06:43:56.741,13 Mar 2023 06:47:27.992,211.251
100,13 Mar 2023 08:16:58.276,13 Mar 2023 08:20:53.132,234.856
101,13 Mar 2023 09:50:49.034,13 Mar 2023 09:54:12.736,203.702
102,14 Mar 2023 00:04:37.525,14 Mar 2023 00:08:02.951,205.427
103,14 Mar 2023 01:37:57.522,14 Mar 2023 01:41:52.242,234.721
104,14 Mar 2023 03:11:22.567,14 Mar 2023 03:14:53.131,210.564
105,14 Mar 2023 04:44:34.364,14 Mar 2023 04:47:42.088,187.724
106,14 Mar 2023 06:17:25.959,14 Mar 2023 06:20:48.191,202.232
107,14 Mar 2023 07:50:20.132,14 Mar 2023 07:54:11.315,231.183
108,14 Mar 2023 09:23:52.847,14 Mar 2023 09:27:34.954,222.107
109,14 Mar 2023 10:59:03.669,14 Mar 2023 11:00:13.644,69.974
110,14 Mar 2023 23:38:03.265,14 Mar 2023 23:40:58.975,175.710
111,15 Mar 2023 01:11:16.010,15 Mar 2023 01:15:10.466,234.456
112,15 Mar 2023 02:44:41.758,15 Mar 2023 02:48:21.414,219.656
113,15 Mar 2023 04:17:58.922,15 Mar 2023 04:21:10.069,191.147
114,15 Mar 2023 05:50:55.335,15 Mar 2023 05:54:09.857,194.522
115,15 Mar 2023 07:23:45.132,15 Mar 2023 07:27:29.573,224.441
116,15 Mar 2023 08:57:03.162,15 Mar 2023 09:00:55.044,231.882
117,15 Mar 2023 10:31:30.598,15 Mar 2023 10:34:00.840,150.242
118,15 Mar 2023 23:11:37.259,15 Mar 2023 23:13:41.936,124.677
119,16 Mar 2023 00:44:35.326,16 Mar 2023 00:48:23.947,228.620
120,16 Mar 2023 02:18:00.243,16 Mar 2023 02:21:47.852,227.609
121,16 Mar 2023 03:51:21.581,16 Mar 2023 03:54:39.144,197.563
122,16 Mar 2023 05:24:24.034,16 Mar 2023 05:27:33.303,189.269
123,16 Mar 2023 06:57:12.463,16 Mar 2023 07:00:48.310,215.847
124,16 Mar 2023 08:30:18.773,16 Mar 2023 08:34:13.937,235.164
125,16 Mar 2023 10:04:20.127,16 Mar 2023 10:07:30.338,190.210
126,17 Mar 2023 00:17:56.176,17 Mar 2023 00:21:31.668,215.492
127,17 Mar 2023 01:51:18.419,17 Mar 2023 01:55:11.611,233.192
128,17 Mar 2023 03:24:42.579,17 Mar 2023 03:28:08.559,205.981
129,17 Mar 2023 04:57:51.362,17 Mar 2023 05:00:58.685,187.323
130,17 Mar 2023 06:30:41.276,17 Mar 2023 06:34:07.920,206.644
131,17 Mar 2023 08:03:38.758,17 Mar 2023 08:07:32.233,233.475
132,17 Mar 2023 09:37:20.022,17 Mar 2023 09:40:54.192,214.170
133,17 Mar 2023 23:51:19.751,17 Mar 2023 23:54:32.181,192.430
134,18 Mar 2023 01:24:36.693,18 Mar 2023 01:28:31.883,235.189
135,18 Mar 2023 02:58:02.277,18 Mar 2023 03:01:37.443,215.166
136,18 Mar 2023 04:31:16.887,18 Mar 2023 04:34:25.889,189.001
137,18 Mar 2023 06:04:10.683,18 Mar 2023 06:07:28.808,198.124
138,18 Mar 2023 07:37:02.287,18 Mar 2023 07:40:50.403,228.116
139,18 Mar 2023 09:10:27.268,18 Mar 2023 09:14:15.194,227.927
140,18 Mar 2023 10:45:12.177,18 Mar 2023 10:47:11.565,119.387
141,18 Mar 2023 23:24:48.645,18 Mar 2023 23:27:22.671,154.026
142,19 Mar 2023 00:57:55.519,19 Mar 2023 01:01:47.849,232.330
143,19 Mar 2023 02:31:21.065,19 Mar 2023 02:35:04.908,223.843
144,19 Mar 2023 04:04:40.480,19 Mar 2023 04:07:54.501,194.022
145,19 Mar 2023 05:37:39.816,19 Mar 2023 05:40:51.333,191.517
146,19 Mar 2023 07:10:28.560,19 Mar 2023 07:14:08.848,220.287
147,19 Mar 2023 08:43:40.361,19 Mar 2023 08:47:34.596,234.235
148,19 Mar 2023 10:17:53.733,19 Mar 2023 10:20:46.605,172.872
149,19 Mar 2023 22:58:33.039,19 Mar 2023 22:59:52.771,79.732
150,20 Mar 2023 00:31:15.493,20 Mar 2023 00:34:58.597,223.104
151,20 Mar 2023 02:04:39.344,20 Mar 2023 02:08:30.110,230.767
152,20 Mar 2023 03:38:02.269,20 Mar 2023 03:41:23.852,201.582
153,20 Mar 2023 05:11:07.905,20 Mar 2023 05:14:15.739,187.834
154,20 Mar 2023 06:43:56.740,20 Mar 2023 06:47:27.972,211.233
155,20 Mar 2023 08:16:58.267,20 Mar 2023 08:20:53.121,234.855
156,20 Mar 2023 09:50:49.013,20 Mar 2023 09:54:12.737,203.725
157,21 Mar 2023 00:04:37.503,21 Mar 2023 00:08:02.951,205.448
158,21 Mar 2023 01:37:57.512,21 Mar 2023 01:41:52.231,234.719
159,21 Mar 2023 03:11:22.566,21 Mar 2023 03:14:53.112,210.546
160,21 Mar 2023 04:44:34.369,21 Mar 2023 04:47:42.064,187.695
161,21 Mar 2023 06:17:25.960,21 Mar 2023 06:20:48.170,202.209
162,21 Mar 2023 07:50:20.126,21 Mar 2023 07:54:11.299,231.173
163,21 Mar 2023 09:23:52.831,21 Mar 2023 09:27:34.952,222.121
164,21 Mar 2023 10:59:03.598,21 Mar 2023 11:00:13.697,70.100
165,21 Mar 2023 23:38:03.238,21 Mar 2023 23:40:58.982,175.744
166,22 Mar 2023 01:11:15.999,22 Mar 2023 01:15:10.458,234.459
167,22 Mar 2023 02:44:41.756,22 Mar 2023 02:48:21.398,219.642
168,22 Mar 2023 04:17:58.926,22 Mar 2023 04:21:10.046,191.120
169,22 Mar 2023 05:50:55.338,22 Mar 2023 05:54:09.834,194.496
170,22 Mar 2023 07:23:45.128,22 Mar 2023 07:27:29.558,224.430
171,22 Mar 2023 08:57:03.150,22 Mar 2023 09:00:55.038,231.889
172,22 Mar 2023 10:31:30.566,22 Mar 2023 10:34:00.855,150.289
173,22 Mar 2023 23:11:37.219,22 Mar 2023 23:13:41.958,124.739
174,23 Mar 2023 00:44:35.312,23 Mar 2023 00:48:23.939,228.627
175,23 Mar 2023 02:18:00.239,23 Mar 2023 02:21:47.839,227.599
176,23 Mar 2023 03:51:21.585,23 Mar 2023 03:54:39.123,197.538
177,23 Mar 2023 05:24:24.040,23 Mar 2023 05:27:33.280,189.240
178,23 Mar 2023 06:57:12.463,23 Mar 2023 07:00:48.293,215.830
179,23 Mar 2023 08:30:18.764,23 Mar 2023 08:34:13.929,235.165
180,23 Mar 2023 10:04:20.105,23 Mar 2023 10:07:30.344,190.239
181,24 Mar 2023 00:17:56.159,24 Mar 2023 00:21:31.668,215.510
182,24 Mar 2023 01:51:18.413,24 Mar 2023 01:55:11.600,233.187
183,24 Mar 2023 03:24:42.583,24 Mar 2023 03:28:08.541,205.958
184,24 Mar 2023 04:57:51.369,24 Mar 2023 05:00:58.662,187.293
185,24 Mar 2023 06:30:41.279,24 Mar 2023 06:34:07.901,206.623
186,24 Mar 2023 08:03:38.754,24 Mar 2023 08:07:32.223,233.470
187,24 Mar 2023 09:37:20.005,24 Mar 2023 09:40:54.197,214.192
188,24 Mar 2023 23:51:19.729,24 Mar 2023 23:54:32.188,192.459
189,25 Mar 2023 01:24:36.688,25 Mar 2023 01:28:31.875,235.188
190,25 Mar 2023 02:58:02.278,25 Mar 2023 03:01:37.427,215.148
191,25 Mar 2023 04:31:16.895,25 Mar 2023 04:34:25.866,188.971
192,25 Mar 2023 06:04:10.689,25 Mar 2023 06:07:28.787,198.098
193,25 Mar 2023 07:37:02.285,25 Mar 2023 07:40:50.388,228.103
194,25 Mar 2023 09:10:27.255,25 Mar 2023 09:14:15.193,227.937
195,25 Mar 2023 10:45:12.135,25 Mar 2023 10:47:11.594,119.458
196,25 Mar 2023 23:24:48.609,25 Mar 2023 23:27:22.687,154.078
197,26 Mar 2023 00:57:55.508,26 Mar 2023 01:01:47.845,232.337
198,26 Mar 2023 02:31:21.064,26 Mar 2023 02:35:04.895,223.830
199,26 Mar 2023 04:04:40.487,26 Mar 2023 04:07:54.480,193.993
200,26 Mar 2023 05:37:39.824,26 Mar 2023 05:40:51.311,191.487
201,26 Mar 2023 07:10:28.561,26 Mar 2023 07:14:08.833,220.272
202,26 Mar 2023 08:43:40.352,26 Mar 2023 08:47:34.592,234.239
203,26 Mar 2023 10:17:53.707,26 Mar 2023 10:20:46.619,172.911
204,26 Mar 2023 22:58:32.973,26 Mar 2023 22:59:52.823,79.850
205,27 Mar 2023 00:31:15.479,27 Mar 2023 00:34:58.597,223.118
206,27 Mar 2023 02:04:39.341,27 Mar 2023 02:08:30.099,230.759
207,27 Mar 2023 03:38:02.275,27 Mar 2023 03:41:23.832,201.557
208,27 Mar 2023 05:11:07.914,27 Mar 2023 05:14:15.716,187.802
209,27 Mar 2023 06:43:56.743,27 Mar 2023 06:47:27.955,211.212
210,27 Mar 2023 08:16:58.261,27 Mar 2023 08:20:53.114,234.853
211,27 Mar 2023 09:50:48.994,27 Mar 2023 09:54:12.744,203.750
212,28 Mar 2023 00:04:37.484,28 Mar 2023 00:08:02.956,205.473
213,28 Mar 2023 01:37:57.507,28 Mar 2023 01:41:52.223,234.716
214,28 Mar 2023 03:11:22.573,28 Mar 2023 03:14:53.095,210.522
215,28 Mar 2023 04:44:34.378,28 Mar 2023 04:47:42.041,187.663
216,28 Mar 2023 06:17:25.966,28 Mar 2023 06:20:48.150,202.184
217,28 Mar 2023 07:50:20.123,28 Mar 2023 07:54:11.289,231.166
218,28 Mar 2023 09:23:52.817,28 Mar 2023 09:27:34.953,222.136
219,28 Mar 2023 10:59:03.520,28 Mar 2023 11:00:13.763,70.243
220,28 Mar 2023 23:38:03.211,28 Mar 2023 23:40:58.991,175.780
221,29 Mar 2023 01:11:15.990,29 Mar 2023 01:15:10.453,234.463
222,29 Mar 2023 02:44:41.757,29 Mar 2023 02:48:21.383,219.625
223,29 Mar 2023 04:17:58.935,29 Mar 2023 04:21:10.023,191.088
224,29 Mar 2023 05:50:55.346,29 Mar 2023 05:54:09.813,194.466
225,29 Mar 2023 07:23:45.128,29 Mar 2023 07:27:29.545,224.416
226,29 Mar 2023 08:57:03.139,29 Mar 2023 09:00:55.036,231.897
227,29 Mar 2023 10:31:30.533,29 Mar 2023 10:34:00.876,150.342
228,29 Mar 2023 23:11:37.176,29 Mar 2023 23:13:41.985,124.810
229,30 Mar 2023 00:44:35.300,30 Mar 2023 00:48:23.938,228.638
230,30 Mar 2023 02:18:00.238,30 Mar 2023 02:21:47.826,227.588
231,30 Mar 2023 03:51:21.592,30 Mar 2023 03:54:39.102,197.510
232,30 Mar 2023 05:24:24.049,30 Mar 2023 05:27:33.257,189.208
233,30 Mar 2023 06:57:12.466,30 Mar 2023 07:00:48.277,215.811
234,30 Mar 2023 08:30:18.757,30 Mar 2023 08:34:13.923,235.166
235,30 Mar 2023 10:04:20.083,30 Mar 2023 10:07:30.354,190.271
236,31 Mar 2023 00:17:56.142,31 Mar 2023 00:21:31.671,215.529
237,31 Mar 2023 01:51:18.409,31 Mar 2023 01:55:11.591,233.182
238,31 Mar 2023 03:24:42.588,31 Mar 2023 03:28:08.523,205.934
239,31 Mar 2023 04:57:51.379,31 Mar 2023 05:00:58.639,187.261
240,31 Mar 2023 06:30:41.284,31 Mar 2023 06:34:07.883,206.600
241,31 Mar 2023 08:03:38.748,31 Mar 2023 08:07:32.215,233.466
242,31 Mar 2023 09:37:19.989,31 Mar 2023 09:40:54.201,214.212
243,31 Mar 2023 23:51:19.707,31 Mar 2023 23:54:32.196,192.489

