data/STK/Satellite_Satellite_To_Facility_Svalsat_SG_1_STDN_SG1S_Access.csv

"Access","Start Time (UTCG)","Stop Time (UTCG)","Duration (sec)"
1,1 Mar 2023 01:07:31.294,1 Mar 2023 01:18:53.175,681.881
2,1 Mar 2023 02:40:53.344,1 Mar 2023 02:52:08.580,675.235
3,1 Mar 2023 04:14:01.344,1 Mar 2023 04:25:07.297,665.952
4,1 Mar 2023 05:46:59.414,1 Mar 2023 05:58:06.380,666.966
5,1 Mar 2023 07:19:59.604,1 Mar 2023 07:31:16.589,676.985
6,1 Mar 2023 08:53:19.487,1 Mar 2023 09:04:40.931,681.445
7,1 Mar 2023 10:27:15.925,1 Mar 2023 10:38:18.180,662.254
8,1 Mar 2023 12:02:00.112,1 Mar 2023 12:12:06.827,606.714
9,1 Mar 2023 13:37:33.711,1 Mar 2023 13:46:07.875,514.164
10,1 Mar 2023 15:13:41.831,1 Mar 2023 15:20:29.000,407.169
11,1 Mar 2023 16:49:42.837,1 Mar 2023 16:55:31.295,348.458
12,1 Mar 2023 18:24:51.889,1 Mar 2023 18:31:27.636,395.747
13,1 Mar 2023 19:59:16.602,1 Mar 2023 20:07:37.702,501.100
14,1 Mar 2023 21:33:19.478,1 Mar 2023 21:43:16.745,597.267
15,1 Mar 2023 23:07:09.500,1 Mar 2023 23:18:07.092,657.591
16,2 Mar 2023 00:40:48.195,2 Mar 2023 00:52:08.891,680.696
17,2 Mar 2023 02:14:14.203,2 Mar 2023 02:25:32.404,678.201
18,2 Mar 2023 03:47:26.103,2 Mar 2023 03:58:34.004,667.901
19,2 Mar 2023 05:20:26.134,2 Mar 2023 05:31:31.533,665.399
20,2 Mar 2023 06:53:24.065,2 Mar 2023 07:04:37.958,673.893
21,2 Mar 2023 08:26:36.455,2 Mar 2023 08:37:58.286,681.831
22,2 Mar 2023 10:00:20.991,2 Mar 2023 10:11:32.041,671.050
23,2 Mar 2023 11:34:50.859,2 Mar 2023 11:45:17.492,626.633
24,2 Mar 2023 13:10:10.937,2 Mar 2023 13:19:14.628,543.691
25,2 Mar 2023 14:46:12.143,2 Mar 2023 14:53:28.554,436.411
26,2 Mar 2023 16:22:20.891,2 Mar 2023 16:28:16.259,355.368
27,2 Mar 2023 17:57:46.474,2 Mar 2023 18:03:59.036,372.562
28,2 Mar 2023 19:32:21.042,2 Mar 2023 19:40:10.858,469.816
29,2 Mar 2023 21:06:28.731,2 Mar 2023 21:16:01.639,572.908
30,2 Mar 2023 22:40:22.064,2 Mar 2023 22:51:06.472,644.408
31,3 Mar 2023 00:14:04.058,3 Mar 2023 00:25:21.447,677.389
32,3 Mar 2023 01:47:33.892,3 Mar 2023 01:58:54.428,680.537
33,3 Mar 2023 03:20:49.842,3 Mar 2023 03:32:00.417,670.575
34,3 Mar 2023 04:53:52.637,3 Mar 2023 05:04:57.464,664.827
35,3 Mar 2023 06:26:49.698,3 Mar 2023 06:38:00.494,670.796
36,3 Mar 2023 07:59:56.074,3 Mar 2023 08:11:16.742,680.668
37,3 Mar 2023 09:33:29.803,3 Mar 2023 09:44:46.855,677.052
38,3 Mar 2023 11:07:45.788,3 Mar 2023 11:18:29.086,643.298
39,3 Mar 2023 12:42:51.678,3 Mar 2023 12:52:22.674,570.996
40,3 Mar 2023 14:18:43.261,3 Mar 2023 14:26:30.750,467.489
41,3 Mar 2023 15:54:55.038,3 Mar 2023 16:01:06.146,371.108
42,3 Mar 2023 17:30:36.692,3 Mar 2023 17:36:32.950,356.258
43,3 Mar 2023 19:05:23.413,3 Mar 2023 19:12:42.091,438.678
44,3 Mar 2023 20:39:36.860,3 Mar 2023 20:48:42.659,545.799
45,3 Mar 2023 22:13:33.726,3 Mar 2023 22:24:01.707,627.981
46,3 Mar 2023 23:47:18.940,3 Mar 2023 23:58:30.533,671.593
47,4 Mar 2023 01:20:52.436,4 Mar 2023 01:32:14.225,681.790
48,4 Mar 2023 02:54:12.464,4 Mar 2023 03:05:26.118,673.654
49,4 Mar 2023 04:27:18.619,4 Mar 2023 04:38:23.938,665.319
50,4 Mar 2023 06:00:16.073,4 Mar 2023 06:11:24.153,668.080
51,4 Mar 2023 07:33:17.949,4 Mar 2023 07:44:36.341,678.392
52,4 Mar 2023 09:06:42.108,4 Mar 2023 09:18:02.646,680.538
53,4 Mar 2023 10:40:44.861,4 Mar 2023 10:51:41.587,656.725
54,4 Mar 2023 12:15:36.278,4 Mar 2023 12:25:31.851,595.572
55,4 Mar 2023 13:51:16.242,4 Mar 2023 13:59:35.065,498.823
56,4 Mar 2023 15:27:26.572,4 Mar 2023 15:34:00.435,393.864
57,4 Mar 2023 17:03:22.024,4 Mar 2023 17:09:10.692,348.668
58,4 Mar 2023 18:38:23.174,4 Mar 2023 18:45:12.425,409.251
59,4 Mar 2023 20:12:43.713,4 Mar 2023 20:21:20.139,516.425
60,4 Mar 2023 21:46:44.458,4 Mar 2023 21:56:52.771,608.313
61,4 Mar 2023 23:20:32.870,4 Mar 2023 23:31:35.882,663.012
62,5 Mar 2023 00:54:09.870,5 Mar 2023 01:05:31.399,681.529
63,5 Mar 2023 02:27:33.917,5 Mar 2023 02:38:50.681,676.764
64,5 Mar 2023 04:00:43.834,5 Mar 2023 04:11:50.657,666.822
65,5 Mar 2023 05:33:42.777,5 Mar 2023 05:44:48.835,666.059
66,5 Mar 2023 07:06:41.652,5 Mar 2023 07:17:57.116,675.464
67,5 Mar 2023 08:39:57.606,5 Mar 2023 08:51:19.467,681.861
68,5 Mar 2023 10:13:47.965,5 Mar 2023 10:24:54.988,667.023
69,5 Mar 2023 11:48:24.953,5 Mar 2023 11:58:42.038,617.085
70,5 Mar 2023 13:23:51.899,5 Mar 2023 13:32:41.076,529.177
71,5 Mar 2023 14:59:56.940,5 Mar 2023 15:06:58.410,421.470
72,5 Mar 2023 16:36:02.399,5 Mar 2023 16:41:53.157,350.759
73,5 Mar 2023 18:11:19.660,5 Mar 2023 18:17:43.121,383.461
74,5 Mar 2023 19:45:49.038,5 Mar 2023 19:53:54.578,485.540
75,5 Mar 2023 21:19:54.225,5 Mar 2023 21:29:39.689,585.464
76,5 Mar 2023 22:53:45.885,5 Mar 2023 23:04:37.287,651.402
77,6 Mar 2023 00:27:26.243,6 Mar 2023 00:38:45.583,679.340
78,6 Mar 2023 02:00:54.191,6 Mar 2023 02:12:13.657,679.466
79,6 Mar 2023 03:34:08.098,6 Mar 2023 03:45:17.268,669.170
80,6 Mar 2023 05:07:09.429,6 Mar 2023 05:18:14.406,664.977
81,6 Mar 2023 06:40:06.757,6 Mar 2023 06:51:19.071,672.314
82,6 Mar 2023 08:13:15.948,6 Mar 2023 08:24:37.363,681.415
83,6 Mar 2023 09:46:54.932,6 Mar 2023 09:58:09.321,674.389
84,6 Mar 2023 11:21:17.791,6 Mar 2023 11:31:53.173,635.382
85,6 Mar 2023 12:56:30.831,6 Mar 2023 13:05:48.499,557.668
86,6 Mar 2023 14:32:27.514,6 Mar 2023 14:39:59.359,451.845
87,6 Mar 2023 16:08:38.357,6 Mar 2023 16:14:40.622,362.265
88,6 Mar 2023 17:44:12.146,6 Mar 2023 17:50:15.598,363.453
89,6 Mar 2023 19:18:52.501,6 Mar 2023 19:26:26.655,454.155
90,6 Mar 2023 20:53:02.929,6 Mar 2023 21:02:22.618,559.689
91,6 Mar 2023 22:26:58.001,6 Mar 2023 22:37:34.610,636.608
92,7 Mar 2023 00:00:41.609,7 Mar 2023 00:11:56.434,674.825
93,7 Mar 2023 01:34:13.297,7 Mar 2023 01:45:34.625,681.329
94,7 Mar 2023 03:07:31.291,7 Mar 2023 03:18:43.378,672.087
95,7 Mar 2023 04:40:35.709,7 Mar 2023 04:51:40.638,664.929
96,7 Mar 2023 06:13:32.810,7 Mar 2023 06:24:42.180,669.369
97,7 Mar 2023 07:46:36.748,7 Mar 2023 07:57:56.391,679.643
98,7 Mar 2023 09:20:05.531,7 Mar 2023 09:31:24.620,679.089
99,7 Mar 2023 10:54:14.799,7 Mar 2023 11:05:05.217,650.418
100,7 Mar 2023 12:29:13.468,7 Mar 2023 12:38:57.128,583.660
101,7 Mar 2023 14:04:59.447,7 Mar 2023 14:13:02.674,483.228
102,7 Mar 2023 15:41:11.025,7 Mar 2023 15:47:32.786,381.760
103,7 Mar 2023 17:16:59.970,7 Mar 2023 17:22:51.286,351.317
104,7 Mar 2023 18:51:53.635,7 Mar 2023 18:58:57.297,423.661
105,7 Mar 2023 20:26:10.444,7 Mar 2023 20:35:01.816,531.372
106,7 Mar 2023 22:00:09.200,7 Mar 2023 22:10:27.758,618.558
107,7 Mar 2023 23:33:56.015,7 Mar 2023 23:45:03.680,667.665
108,8 Mar 2023 01:07:31.278,8 Mar 2023 01:18:53.162,681.884
109,8 Mar 2023 02:40:53.332,8 Mar 2023 02:52:08.561,675.228
110,8 Mar 2023 04:14:01.331,8 Mar 2023 04:25:07.280,665.949
111,8 Mar 2023 05:46:59.404,8 Mar 2023 05:58:06.364,666.960
112,8 Mar 2023 07:19:59.592,8 Mar 2023 07:31:16.574,676.982
113,8 Mar 2023 08:53:19.473,8 Mar 2023 09:04:40.916,681.443
114,8 Mar 2023 10:27:15.908,8 Mar 2023 10:38:18.172,662.264
115,8 Mar 2023 12:02:00.086,8 Mar 2023 12:12:06.823,606.738
116,8 Mar 2023 13:37:33.680,8 Mar 2023 13:46:07.878,514.198
117,8 Mar 2023 15:13:41.793,8 Mar 2023 15:20:29.017,407.224
118,8 Mar 2023 16:49:42.787,8 Mar 2023 16:55:31.311,348.524
119,8 Mar 2023 18:24:51.854,8 Mar 2023 18:31:27.648,395.795
120,8 Mar 2023 19:59:16.566,8 Mar 2023 20:07:37.704,501.138
121,8 Mar 2023 21:33:19.454,8 Mar 2023 21:43:16.740,597.285
122,8 Mar 2023 23:07:09.482,8 Mar 2023 23:18:07.081,657.600
123,9 Mar 2023 00:40:48.181,9 Mar 2023 00:52:08.880,680.699
124,9 Mar 2023 02:14:14.192,9 Mar 2023 02:25:32.388,678.196
125,9 Mar 2023 03:47:26.094,9 Mar 2023 03:58:33.988,667.894
126,9 Mar 2023 05:20:26.125,9 Mar 2023 05:31:31.517,665.392
127,9 Mar 2023 06:53:24.055,9 Mar 2023 07:04:37.943,673.889
128,9 Mar 2023 08:26:36.442,9 Mar 2023 08:37:58.274,681.831
129,9 Mar 2023 10:00:20.975,9 Mar 2023 10:11:32.032,671.057
130,9 Mar 2023 11:34:50.839,9 Mar 2023 11:45:17.488,626.649
131,9 Mar 2023 13:10:10.911,9 Mar 2023 13:19:14.631,543.720
132,9 Mar 2023 14:46:12.108,9 Mar 2023 14:53:28.565,436.457
133,9 Mar 2023 16:22:20.846,9 Mar 2023 16:28:16.278,355.432
134,9 Mar 2023 17:57:46.431,9 Mar 2023 18:03:59.052,372.621
135,9 Mar 2023 19:32:21.009,9 Mar 2023 19:40:10.864,469.855
136,9 Mar 2023 21:06:28.706,9 Mar 2023 21:16:01.637,572.931
137,9 Mar 2023 22:40:22.044,9 Mar 2023 22:51:06.465,644.421
138,10 Mar 2023 00:14:04.043,10 Mar 2023 00:25:21.436,677.394
139,10 Mar 2023 01:47:33.880,10 Mar 2023 01:58:54.416,680.535
140,10 Mar 2023 03:20:49.833,10 Mar 2023 03:32:00.402,670.569
141,10 Mar 2023 04:53:52.629,10 Mar 2023 05:04:57.448,664.820
142,10 Mar 2023 06:26:49.689,10 Mar 2023 06:38:00.479,670.791
143,10 Mar 2023 07:59:56.063,10 Mar 2023 08:11:16.729,680.667
144,10 Mar 2023 09:33:29.789,10 Mar 2023 09:44:46.846,677.057
145,10 Mar 2023 11:07:45.770,10 Mar 2023 11:18:29.081,643.311
146,10 Mar 2023 12:42:51.654,10 Mar 2023 12:52:22.675,571.021
147,10 Mar 2023 14:18:43.228,10 Mar 2023 14:26:30.759,467.531
148,10 Mar 2023 15:54:54.995,10 Mar 2023 16:01:06.164,371.169
149,10 Mar 2023 17:30:36.647,10 Mar 2023 17:36:32.969,356.322
150,10 Mar 2023 19:05:23.377,10 Mar 2023 19:12:42.101,438.724
151,10 Mar 2023 20:39:36.833,10 Mar 2023 20:48:42.660,545.828
152,10 Mar 2023 22:13:33.705,10 Mar 2023 22:24:01.702,627.997
153,10 Mar 2023 23:47:18.924,10 Mar 2023 23:58:30.524,671.600
154,11 Mar 2023 01:20:52.424,11 Mar 2023 01:32:14.214,681.790
155,11 Mar 2023 02:54:12.455,11 Mar 2023 03:05:26.104,673.649
156,11 Mar 2023 04:27:18.611,11 Mar 2023 04:38:23.923,665.312
157,11 Mar 2023 06:00:16.064,11 Mar 2023 06:11:24.138,668.073
158,11 Mar 2023 07:33:17.939,11 Mar 2023 07:44:36.328,678.389
159,11 Mar 2023 09:06:42.095,11 Mar 2023 09:18:02.637,680.541
160,11 Mar 2023 10:40:44.845,11 Mar 2023 10:51:41.581,656.737
161,11 Mar 2023 12:15:36.256,11 Mar 2023 12:25:31.851,595.594
162,11 Mar 2023 13:51:16.212,11 Mar 2023 13:59:35.073,498.861
163,11 Mar 2023 15:27:26.531,11 Mar 2023 15:34:00.452,393.921
164,11 Mar 2023 17:03:21.978,11 Mar 2023 17:09:10.714,348.737
165,11 Mar 2023 18:38:23.134,11 Mar 2023 18:45:12.439,409.305
166,11 Mar 2023 20:12:43.683,11 Mar 2023 20:21:20.143,516.459
167,11 Mar 2023 21:46:44.435,11 Mar 2023 21:56:52.768,608.332
168,11 Mar 2023 23:20:32.853,11 Mar 2023 23:31:35.875,663.022
169,12 Mar 2023 00:54:09.857,12 Mar 2023 01:05:31.388,681.531
170,12 Mar 2023 02:27:33.907,12 Mar 2023 02:38:50.668,676.761
171,12 Mar 2023 04:00:43.827,12 Mar 2023 04:11:50.642,666.815
172,12 Mar 2023 05:33:42.769,12 Mar 2023 05:44:48.820,666.051
173,12 Mar 2023 07:06:41.643,12 Mar 2023 07:17:57.102,675.460
174,12 Mar 2023 08:39:57.594,12 Mar 2023 08:51:19.457,681.862
175,12 Mar 2023 10:13:47.950,12 Mar 2023 10:24:54.981,667.032
176,12 Mar 2023 11:48:24.933,12 Mar 2023 11:58:42.037,617.104
177,12 Mar 2023 13:23:51.872,12 Mar 2023 13:32:41.082,529.210
178,12 Mar 2023 14:59:56.903,12 Mar 2023 15:06:58.426,421.523
179,12 Mar 2023 16:36:02.352,12 Mar 2023 16:41:53.181,350.829
180,12 Mar 2023 18:11:19.617,12 Mar 2023 18:17:43.139,383.522
181,12 Mar 2023 19:45:49.005,12 Mar 2023 19:53:54.585,485.580
182,12 Mar 2023 21:19:54.200,12 Mar 2023 21:29:39.688,585.488
183,12 Mar 2023 22:53:45.867,12 Mar 2023 23:04:37.281,651.414
184,13 Mar 2023 00:27:26.230,13 Mar 2023 00:38:45.573,679.344
185,13 Mar 2023 02:00:54.180,13 Mar 2023 02:12:13.644,679.464
186,13 Mar 2023 03:34:08.090,13 Mar 2023 03:45:17.253,669.163
187,13 Mar 2023 05:07:09.422,13 Mar 2023 05:18:14.391,664.969
188,13 Mar 2023 06:40:06.748,13 Mar 2023 06:51:19.057,672.308
189,13 Mar 2023 08:13:15.936,13 Mar 2023 08:24:37.352,681.415
190,13 Mar 2023 09:46:54.917,13 Mar 2023 09:58:09.313,674.396
191,13 Mar 2023 11:21:17.772,13 Mar 2023 11:31:53.171,635.399
192,13 Mar 2023 12:56:30.806,13 Mar 2023 13:05:48.503,557.698
193,13 Mar 2023 14:32:27.479,13 Mar 2023 14:39:59.372,451.894
194,13 Mar 2023 16:08:38.311,13 Mar 2023 16:14:40.645,362.334
195,13 Mar 2023 17:44:12.099,13 Mar 2023 17:50:15.620,363.521
196,13 Mar 2023 19:18:52.464,13 Mar 2023 19:26:26.666,454.202
197,13 Mar 2023 20:53:02.902,13 Mar 2023 21:02:22.620,559.718
198,13 Mar 2023 22:26:57.981,13 Mar 2023 22:37:34.605,636.624
199,14 Mar 2023 00:00:41.594,14 Mar 2023 00:11:56.425,674.832
200,14 Mar 2023 01:34:13.286,14 Mar 2023 01:45:34.614,681.328
201,14 Mar 2023 03:07:31.283,14 Mar 2023 03:18:43.364,672.081
202,14 Mar 2023 04:40:35.702,14 Mar 2023 04:51:40.623,664.921
203,14 Mar 2023 06:13:32.802,14 Mar 2023 06:24:42.165,669.363
204,14 Mar 2023 07:46:36.738,14 Mar 2023 07:57:56.379,679.641
205,14 Mar 2023 09:20:05.517,14 Mar 2023 09:31:24.611,679.094
206,14 Mar 2023 10:54:14.781,14 Mar 2023 11:05:05.213,650.432
207,14 Mar 2023 12:29:13.445,14 Mar 2023 12:38:57.130,583.686
208,14 Mar 2023 14:04:59.414,14 Mar 2023 14:13:02.685,483.271
209,14 Mar 2023 15:41:10.982,14 Mar 2023 15:47:32.807,381.825
210,14 Mar 2023 17:16:59.921,14 Mar 2023 17:22:51.311,351.390
211,14 Mar 2023 18:51:53.595,14 Mar 2023 18:58:57.311,423.716
212,14 Mar 2023 20:26:10.414,14 Mar 2023 20:35:01.821,531.406
213,14 Mar 2023 22:00:09.178,14 Mar 2023 22:10:27.755,618.577
214,14 Mar 2023 23:33:55.998,14 Mar 2023 23:45:03.672,667.674
215,15 Mar 2023 01:07:31.266,15 Mar 2023 01:18:53.151,681.885
216,15 Mar 2023 02:40:53.323,15 Mar 2023 02:52:08.547,675.224
217,15 Mar 2023 04:14:01.324,15 Mar 2023 04:25:07.265,665.941
218,15 Mar 2023 05:46:59.396,15 Mar 2023 05:58:06.348,666.952
219,15 Mar 2023 07:19:59.582,15 Mar 2023 07:31:16.560,676.978
220,15 Mar 2023 08:53:19.464,15 Mar 2023 09:04:40.906,681.442
221,15 Mar 2023 10:27:15.891,15 Mar 2023 10:38:18.166,662.275
222,15 Mar 2023 12:02:00.064,15 Mar 2023 12:12:06.824,606.760
223,15 Mar 2023 13:37:33.650,15 Mar 2023 13:46:07.886,514.236
224,15 Mar 2023 15:13:41.752,15 Mar 2023 15:20:29.036,407.283
225,15 Mar 2023 16:49:42.738,15 Mar 2023 16:55:31.337,348.599
226,15 Mar 2023 18:24:51.810,15 Mar 2023 18:31:27.667,395.856
227,15 Mar 2023 19:59:16.534,15 Mar 2023 20:07:37.711,501.177
228,15 Mar 2023 21:33:19.430,15 Mar 2023 21:43:16.738,597.309
229,15 Mar 2023 23:07:09.464,15 Mar 2023 23:18:07.075,657.611
230,16 Mar 2023 00:40:48.167,16 Mar 2023 00:52:08.870,680.702
231,16 Mar 2023 02:14:14.182,16 Mar 2023 02:25:32.375,678.193
232,16 Mar 2023 03:47:26.086,16 Mar 2023 03:58:33.973,667.887
233,16 Mar 2023 05:20:26.117,16 Mar 2023 05:31:31.502,665.384
234,16 Mar 2023 06:53:24.046,16 Mar 2023 07:04:37.929,673.884
235,16 Mar 2023 08:26:36.431,16 Mar 2023 08:37:58.263,681.832
236,16 Mar 2023 10:00:20.960,16 Mar 2023 10:11:32.025,671.065
237,16 Mar 2023 11:34:50.819,16 Mar 2023 11:45:17.487,626.668
238,16 Mar 2023 13:10:10.883,16 Mar 2023 13:19:14.636,543.753
239,16 Mar 2023 14:46:12.070,16 Mar 2023 14:53:28.580,436.510
240,16 Mar 2023 16:22:20.798,16 Mar 2023 16:28:16.303,355.505
241,16 Mar 2023 17:57:46.385,16 Mar 2023 18:03:59.073,372.688
242,16 Mar 2023 19:32:20.973,16 Mar 2023 19:40:10.874,469.901
243,16 Mar 2023 21:06:28.679,16 Mar 2023 21:16:01.637,572.958
244,16 Mar 2023 22:40:22.024,16 Mar 2023 22:51:06.460,644.435
245,17 Mar 2023 00:14:04.028,17 Mar 2023 00:25:21.427,677.399
246,17 Mar 2023 01:47:33.869,17 Mar 2023 01:58:54.403,680.534
247,17 Mar 2023 03:20:49.824,17 Mar 2023 03:32:00.387,670.563
248,17 Mar 2023 04:53:52.621,17 Mar 2023 05:04:57.433,664.811
249,17 Mar 2023 06:26:49.680,17 Mar 2023 06:38:00.465,670.784
250,17 Mar 2023 07:59:56.052,17 Mar 2023 08:11:16.717,680.665
251,17 Mar 2023 09:33:29.775,17 Mar 2023 09:44:46.837,677.063
252,17 Mar 2023 11:07:45.752,17 Mar 2023 11:18:29.078,643.326
253,17 Mar 2023 12:42:51.629,17 Mar 2023 12:52:22.678,571.049
254,17 Mar 2023 14:18:43.194,17 Mar 2023 14:26:30.771,467.577
255,17 Mar 2023 15:54:54.950,17 Mar 2023 16:01:06.187,371.237
256,17 Mar 2023 17:30:36.599,17 Mar 2023 17:36:32.993,356.394
257,17 Mar 2023 19:05:23.339,17 Mar 2023 19:12:42.113,438.775
258,17 Mar 2023 20:39:36.804,17 Mar 2023 20:48:42.663,545.859
259,17 Mar 2023 22:13:33.684,17 Mar 2023 22:24:01.698,628.014
260,17 Mar 2023 23:47:18.908,17 Mar 2023 23:58:30.516,671.608
261,18 Mar 2023 01:20:52.412,18 Mar 2023 01:32:14.202,681.791
262,18 Mar 2023 02:54:12.446,18 Mar 2023 03:05:26.090,673.644
263,18 Mar 2023 04:27:18.608,18 Mar 2023 04:38:23.907,665.300
264,18 Mar 2023 06:00:16.056,18 Mar 2023 06:11:24.123,668.066
265,18 Mar 2023 07:33:17.929,18 Mar 2023 07:44:36.315,678.386
266,18 Mar 2023 09:06:42.082,18 Mar 2023 09:18:02.627,680.545
267,18 Mar 2023 10:40:44.828,18 Mar 2023 10:51:41.576,656.749
268,18 Mar 2023 12:15:36.234,18 Mar 2023 12:25:31.852,595.618
269,18 Mar 2023 13:51:16.182,18 Mar 2023 13:59:35.082,498.900
270,18 Mar 2023 15:27:26.490,18 Mar 2023 15:34:00.472,393.982
271,18 Mar 2023 17:03:21.929,18 Mar 2023 17:09:10.739,348.810
272,18 Mar 2023 18:38:23.093,18 Mar 2023 18:45:12.455,409.361
273,18 Mar 2023 20:12:43.653,18 Mar 2023 20:21:20.148,516.495
274,18 Mar 2023 21:46:44.413,18 Mar 2023 21:56:52.765,608.353
275,18 Mar 2023 23:20:32.836,18 Mar 2023 23:31:35.868,663.032
276,19 Mar 2023 00:54:09.845,19 Mar 2023 01:05:31.378,681.533
277,19 Mar 2023 02:27:33.898,19 Mar 2023 02:38:50.655,676.757
278,19 Mar 2023 04:00:43.819,19 Mar 2023 04:11:50.627,666.808
279,19 Mar 2023 05:33:42.762,19 Mar 2023 05:44:48.805,666.044
280,19 Mar 2023 07:06:41.634,19 Mar 2023 07:17:57.089,675.455
281,19 Mar 2023 08:39:57.583,19 Mar 2023 08:51:19.446,681.864
282,19 Mar 2023 10:13:47.934,19 Mar 2023 10:24:54.975,667.041
283,19 Mar 2023 11:48:24.913,19 Mar 2023 11:58:42.036,617.123
284,19 Mar 2023 13:23:51.844,19 Mar 2023 13:32:41.088,529.244
285,19 Mar 2023 14:59:56.865,19 Mar 2023 15:06:58.442,421.577
286,19 Mar 2023 16:36:02.305,19 Mar 2023 16:41:53.205,350.900
287,19 Mar 2023 18:11:19.574,19 Mar 2023 18:17:43.158,383.584
288,19 Mar 2023 19:45:48.972,19 Mar 2023 19:53:54.593,485.621
289,19 Mar 2023 21:19:54.176,19 Mar 2023 21:29:39.688,585.512
290,19 Mar 2023 22:53:45.848,19 Mar 2023 23:04:37.275,651.427
291,20 Mar 2023 00:27:26.216,20 Mar 2023 00:38:45.564,679.348
292,20 Mar 2023 02:00:54.171,20 Mar 2023 02:12:13.632,679.462
293,20 Mar 2023 03:34:08.082,20 Mar 2023 03:45:17.239,669.157
294,20 Mar 2023 05:07:09.415,20 Mar 2023 05:18:14.376,664.962
295,20 Mar 2023 06:40:06.741,20 Mar 2023 06:51:19.043,672.303
296,20 Mar 2023 08:13:15.926,20 Mar 2023 08:24:37.341,681.415
297,20 Mar 2023 09:46:54.904,20 Mar 2023 09:58:09.306,674.403
298,20 Mar 2023 11:21:17.754,20 Mar 2023 11:31:53.169,635.415
299,20 Mar 2023 12:56:30.781,20 Mar 2023 13:05:48.508,557.727
300,20 Mar 2023 14:32:27.445,20 Mar 2023 14:39:59.386,451.941
301,20 Mar 2023 16:08:38.267,20 Mar 2023 16:14:40.669,362.401
302,20 Mar 2023 17:44:12.055,20 Mar 2023 17:50:15.643,363.588
303,20 Mar 2023 19:18:52.430,20 Mar 2023 19:26:26.678,454.248
304,20 Mar 2023 20:53:02.876,20 Mar 2023 21:02:22.622,559.746
305,20 Mar 2023 22:26:57.962,20 Mar 2023 22:37:34.602,636.639
306,21 Mar 2023 00:00:41.580,21 Mar 2023 00:11:56.418,674.838
307,21 Mar 2023 01:34:13.276,21 Mar 2023 01:45:34.603,681.328
308,21 Mar 2023 03:07:31.275,21 Mar 2023 03:18:43.351,672.076
309,21 Mar 2023 04:40:35.696,21 Mar 2023 04:51:40.609,664.913
310,21 Mar 2023 06:13:32.796,21 Mar 2023 06:24:42.152,669.356
311,21 Mar 2023 07:46:36.729,21 Mar 2023 07:57:56.368,679.639
312,21 Mar 2023 09:20:05.506,21 Mar 2023 09:31:24.604,679.098
313,21 Mar 2023 10:54:14.766,21 Mar 2023 11:05:05.211,650.445
314,21 Mar 2023 12:29:13.424,21 Mar 2023 12:38:57.134,583.710
315,21 Mar 2023 14:04:59.385,21 Mar 2023 14:13:02.697,483.312
316,21 Mar 2023 15:41:10.941,21 Mar 2023 15:47:32.829,381.887
317,21 Mar 2023 17:16:59.876,21 Mar 2023 17:22:51.336,351.460
318,21 Mar 2023 18:51:53.559,21 Mar 2023 18:58:57.326,423.768
319,21 Mar 2023 20:26:10.387,21 Mar 2023 20:35:01.826,531.438
320,21 Mar 2023 22:00:09.158,21 Mar 2023 22:10:27.754,618.596
321,21 Mar 2023 23:33:55.984,21 Mar 2023 23:45:03.666,667.682
322,22 Mar 2023 01:07:31.256,22 Mar 2023 01:18:53.142,681.886
323,22 Mar 2023 02:40:53.316,22 Mar 2023 02:52:08.536,675.220
324,22 Mar 2023 04:14:01.318,22 Mar 2023 04:25:07.252,665.934
325,22 Mar 2023 05:46:59.390,22 Mar 2023 05:58:06.336,666.945
326,22 Mar 2023 07:19:59.575,22 Mar 2023 07:31:16.550,676.975
327,22 Mar 2023 08:53:19.450,22 Mar 2023 09:04:40.898,681.448
328,22 Mar 2023 10:27:15.878,22 Mar 2023 10:38:18.163,662.285
329,22 Mar 2023 12:02:00.045,22 Mar 2023 12:12:06.826,606.781
330,22 Mar 2023 13:37:33.624,22 Mar 2023 13:46:07.896,514.272
331,22 Mar 2023 15:13:41.716,22 Mar 2023 15:20:29.055,407.340
332,22 Mar 2023 16:49:42.693,22 Mar 2023 16:55:31.364,348.670
333,22 Mar 2023 18:24:51.771,22 Mar 2023 18:31:27.686,395.915
334,22 Mar 2023 19:59:16.505,22 Mar 2023 20:07:37.720,501.215
335,22 Mar 2023 21:33:19.409,22 Mar 2023 21:43:16.740,597.331
336,22 Mar 2023 23:07:09.448,22 Mar 2023 23:18:07.071,657.623
337,23 Mar 2023 00:40:48.157,23 Mar 2023 00:52:08.862,680.705
338,23 Mar 2023 02:14:14.175,23 Mar 2023 02:25:32.365,678.190
339,23 Mar 2023 03:47:26.081,23 Mar 2023 03:58:33.961,667.880
340,23 Mar 2023 05:20:26.113,23 Mar 2023 05:31:31.489,665.377
341,23 Mar 2023 06:53:24.040,23 Mar 2023 07:04:37.919,673.879
342,23 Mar 2023 08:26:36.422,23 Mar 2023 08:37:58.255,681.832
343,23 Mar 2023 10:00:20.948,23 Mar 2023 10:11:32.022,671.073
344,23 Mar 2023 11:34:50.803,23 Mar 2023 11:45:17.488,626.686
345,23 Mar 2023 13:10:10.860,23 Mar 2023 13:19:14.645,543.784
346,23 Mar 2023 14:46:12.037,23 Mar 2023 14:53:28.598,436.561
347,23 Mar 2023 16:22:20.754,23 Mar 2023 16:28:16.330,355.576
348,23 Mar 2023 17:57:46.343,23 Mar 2023 18:03:59.097,372.754
349,23 Mar 2023 19:32:20.942,23 Mar 2023 19:40:10.886,469.945
350,23 Mar 2023 21:06:28.656,23 Mar 2023 21:16:01.641,572.985
351,23 Mar 2023 22:40:22.008,23 Mar 2023 22:51:06.458,644.450
352,24 Mar 2023 00:14:04.017,24 Mar 2023 00:25:21.421,677.405
353,24 Mar 2023 01:47:33.862,24 Mar 2023 01:58:54.394,680.532
354,24 Mar 2023 03:20:49.819,24 Mar 2023 03:32:00.376,670.557
355,24 Mar 2023 04:53:52.618,24 Mar 2023 05:04:57.421,664.803
356,24 Mar 2023 06:26:49.676,24 Mar 2023 06:38:00.454,670.778
357,24 Mar 2023 07:59:56.045,24 Mar 2023 08:11:16.709,680.664
358,24 Mar 2023 09:33:29.764,24 Mar 2023 09:44:46.833,677.068
359,24 Mar 2023 11:07:45.737,24 Mar 2023 11:18:29.079,643.341
360,24 Mar 2023 12:42:51.609,24 Mar 2023 12:52:22.685,571.077
361,24 Mar 2023 14:18:43.164,24 Mar 2023 14:26:30.788,467.623
362,24 Mar 2023 15:54:54.908,24 Mar 2023 16:01:06.213,371.305
363,24 Mar 2023 17:30:36.555,24 Mar 2023 17:36:33.021,356.466
364,24 Mar 2023 19:05:23.304,24 Mar 2023 19:12:42.131,438.827
365,24 Mar 2023 20:39:36.779,24 Mar 2023 20:48:42.670,545.891
366,24 Mar 2023 22:13:33.666,24 Mar 2023 22:24:01.699,628.032
367,24 Mar 2023 23:47:18.896,24 Mar 2023 23:58:30.512,671.616
368,25 Mar 2023 01:20:52.404,25 Mar 2023 01:32:14.195,681.791
369,25 Mar 2023 02:54:12.441,25 Mar 2023 03:05:26.080,673.639
370,25 Mar 2023 04:27:18.600,25 Mar 2023 04:38:23.896,665.296
371,25 Mar 2023 06:00:16.053,25 Mar 2023 06:11:24.112,668.059
372,25 Mar 2023 07:33:17.923,25 Mar 2023 07:44:36.306,678.383
373,25 Mar 2023 09:06:42.074,25 Mar 2023 09:18:02.622,680.548
374,25 Mar 2023 10:40:44.815,25 Mar 2023 10:51:41.576,656.761
375,25 Mar 2023 12:15:36.216,25 Mar 2023 12:25:31.858,595.642
376,25 Mar 2023 13:51:16.155,25 Mar 2023 13:59:35.096,498.942
377,25 Mar 2023 15:27:26.451,25 Mar 2023 15:34:00.497,394.047
378,25 Mar 2023 17:03:21.883,25 Mar 2023 17:09:10.770,348.887
379,25 Mar 2023 18:38:23.055,25 Mar 2023 18:45:12.477,409.422
380,25 Mar 2023 20:12:43.625,25 Mar 2023 20:21:20.158,516.533
381,25 Mar 2023 21:46:44.393,25 Mar 2023 21:56:52.768,608.375
382,25 Mar 2023 23:20:32.823,25 Mar 2023 23:31:35.865,663.043
383,26 Mar 2023 00:54:09.836,26 Mar 2023 01:05:31.372,681.536
384,26 Mar 2023 02:27:33.893,26 Mar 2023 02:38:50.646,676.753
385,26 Mar 2023 04:00:43.816,26 Mar 2023 04:11:50.616,666.800
386,26 Mar 2023 05:33:42.759,26 Mar 2023 05:44:48.794,666.036
387,26 Mar 2023 07:06:41.630,26 Mar 2023 07:17:57.080,675.450
388,26 Mar 2023 08:39:57.575,26 Mar 2023 08:51:19.440,681.865
389,26 Mar 2023 10:13:47.923,26 Mar 2023 10:24:54.974,667.051
390,26 Mar 2023 11:48:24.896,26 Mar 2023 11:58:42.041,617.145
391,26 Mar 2023 13:23:51.820,26 Mar 2023 13:32:41.101,529.281
392,26 Mar 2023 14:59:56.829,26 Mar 2023 15:06:58.466,421.636
393,26 Mar 2023 16:36:02.259,26 Mar 2023 16:41:53.237,350.978
394,26 Mar 2023 18:11:19.532,26 Mar 2023 18:17:43.185,383.653
395,26 Mar 2023 19:45:48.942,26 Mar 2023 19:53:54.608,485.666
396,26 Mar 2023 21:19:54.155,26 Mar 2023 21:29:39.693,585.539
397,26 Mar 2023 22:53:45.834,26 Mar 2023 23:04:37.275,651.441
398,27 Mar 2023 00:27:26.207,27 Mar 2023 00:38:45.559,679.352
399,27 Mar 2023 02:00:54.165,27 Mar 2023 02:12:13.624,679.459
400,27 Mar 2023 03:34:08.079,27 Mar 2023 03:45:17.229,669.150
401,27 Mar 2023 05:07:09.412,27 Mar 2023 05:18:14.365,664.953
402,27 Mar 2023 06:40:06.737,27 Mar 2023 06:51:19.033,672.296
403,27 Mar 2023 08:13:15.924,27 Mar 2023 08:24:37.334,681.410
404,27 Mar 2023 09:46:54.894,27 Mar 2023 09:58:09.304,674.410
405,27 Mar 2023 11:21:17.739,27 Mar 2023 11:31:53.172,635.433
406,27 Mar 2023 12:56:30.760,27 Mar 2023 13:05:48.519,557.759
407,27 Mar 2023 14:32:27.413,27 Mar 2023 14:39:59.407,451.994
408,27 Mar 2023 16:08:38.223,27 Mar 2023 16:14:40.700,362.477
409,27 Mar 2023 17:44:12.010,27 Mar 2023 17:50:15.673,363.664
410,27 Mar 2023 19:18:52.396,27 Mar 2023 19:26:26.696,454.300
411,27 Mar 2023 20:53:02.852,27 Mar 2023 21:02:22.630,559.778
412,27 Mar 2023 22:26:57.946,27 Mar 2023 22:37:34.603,636.657
413,28 Mar 2023 00:00:41.569,28 Mar 2023 00:11:56.414,674.845
414,28 Mar 2023 01:34:13.269,28 Mar 2023 01:45:34.596,681.327
415,28 Mar 2023 03:07:31.272,28 Mar 2023 03:18:43.341,672.070
416,28 Mar 2023 04:40:35.694,28 Mar 2023 04:51:40.598,664.905
417,28 Mar 2023 06:13:32.793,28 Mar 2023 06:24:42.141,669.349
418,28 Mar 2023 07:46:36.723,28 Mar 2023 07:57:56.360,679.636
419,28 Mar 2023 09:20:05.497,28 Mar 2023 09:31:24.600,679.103
420,28 Mar 2023 10:54:14.752,28 Mar 2023 11:05:05.212,650.460
421,28 Mar 2023 12:29:13.404,28 Mar 2023 12:38:57.142,583.738
422,28 Mar 2023 14:04:59.355,28 Mar 2023 14:13:02.714,483.359
423,28 Mar 2023 15:41:10.899,28 Mar 2023 15:47:32.858,381.959
424,28 Mar 2023 17:16:59.828,28 Mar 2023 17:22:51.369,351.540
425,28 Mar 2023 18:51:53.521,28 Mar 2023 18:58:57.349,423.828
426,28 Mar 2023 20:26:10.361,28 Mar 2023 20:35:01.836,531.476
427,28 Mar 2023 22:00:09.139,28 Mar 2023 22:10:27.756,618.617
428,28 Mar 2023 23:33:55.971,28 Mar 2023 23:45:03.664,667.692
429,29 Mar 2023 01:07:31.248,29 Mar 2023 01:18:53.136,681.888
430,29 Mar 2023 02:40:53.312,29 Mar 2023 02:52:08.526,675.215
431,29 Mar 2023 04:14:01.316,29 Mar 2023 04:25:07.241,665.926
432,29 Mar 2023 05:46:59.388,29 Mar 2023 05:58:06.325,666.937
433,29 Mar 2023 07:19:59.570,29 Mar 2023 07:31:16.541,676.970
434,29 Mar 2023 08:53:19.443,29 Mar 2023 09:04:40.893,681.450
435,29 Mar 2023 10:27:15.866,29 Mar 2023 10:38:18.163,662.297
436,29 Mar 2023 12:02:00.028,29 Mar 2023 12:12:06.832,606.804
437,29 Mar 2023 13:37:33.598,29 Mar 2023 13:46:07.911,514.313
438,29 Mar 2023 15:13:41.677,29 Mar 2023 15:20:29.082,407.404
439,29 Mar 2023 16:49:42.646,29 Mar 2023 16:55:31.398,348.752
440,29 Mar 2023 18:24:51.730,29 Mar 2023 18:31:27.712,395.982
441,29 Mar 2023 19:59:16.475,29 Mar 2023 20:07:37.733,501.258
442,29 Mar 2023 21:33:19.388,29 Mar 2023 21:43:16.744,597.356
443,29 Mar 2023 23:07:09.434,29 Mar 2023 23:18:07.070,657.636
444,30 Mar 2023 00:40:48.148,30 Mar 2023 00:52:08.857,680.709
445,30 Mar 2023 02:14:14.170,30 Mar 2023 02:25:32.356,678.187
446,30 Mar 2023 03:47:26.078,30 Mar 2023 03:58:33.950,667.872
447,30 Mar 2023 05:20:26.110,30 Mar 2023 05:31:31.478,665.368
448,30 Mar 2023 06:53:24.036,30 Mar 2023 07:04:37.909,673.873
449,30 Mar 2023 08:26:36.416,30 Mar 2023 08:37:58.248,681.833
450,30 Mar 2023 10:00:20.938,30 Mar 2023 10:11:32.020,671.082
451,30 Mar 2023 11:34:50.787,30 Mar 2023 11:45:17.492,626.705
452,30 Mar 2023 13:10:10.837,30 Mar 2023 13:19:14.657,543.819
453,30 Mar 2023 14:46:12.003,30 Mar 2023 14:53:28.621,436.618
454,30 Mar 2023 16:22:20.709,30 Mar 2023 16:28:16.363,355.655
455,30 Mar 2023 17:57:46.299,30 Mar 2023 18:03:59.127,372.828
456,30 Mar 2023 19:32:20.909,30 Mar 2023 19:40:10.903,469.994
457,30 Mar 2023 21:06:28.634,30 Mar 2023 21:16:01.648,573.015
458,30 Mar 2023 22:40:21.993,30 Mar 2023 22:51:06.458,644.466
459,31 Mar 2023 00:14:04.006,31 Mar 2023 00:25:21.417,677.411
460,31 Mar 2023 01:47:33.856,31 Mar 2023 01:58:54.387,680.531
461,31 Mar 2023 03:20:49.816,31 Mar 2023 03:32:00.366,670.550
462,31 Mar 2023 04:53:52.615,31 Mar 2023 05:04:57.410,664.795
463,31 Mar 2023 06:26:49.672,31 Mar 2023 06:38:00.444,670.771
464,31 Mar 2023 07:59:56.039,31 Mar 2023 08:11:16.701,680.662
465,31 Mar 2023 09:33:29.755,31 Mar 2023 09:44:46.830,677.075
466,31 Mar 2023 11:07:45.723,31 Mar 2023 11:18:29.081,643.358
467,31 Mar 2023 12:42:51.588,31 Mar 2023 12:52:22.695,571.106
468,31 Mar 2023 14:18:43.134,31 Mar 2023 14:26:30.807,467.673
469,31 Mar 2023 15:54:54.866,31 Mar 2023 16:01:06.244,371.378
470,31 Mar 2023 17:30:36.509,31 Mar 2023 17:36:33.053,356.543
471,31 Mar 2023 19:05:23.269,31 Mar 2023 19:12:42.151,438.882
472,31 Mar 2023 20:39:36.754,31 Mar 2023 20:48:42.679,545.925
473,31 Mar 2023 22:13:33.649,31 Mar 2023 22:24:01.701,628.051
474,31 Mar 2023 23:47:18.885,31 Mar 2023 23:58:30.509,671.624

