data/STK/Satellite-Satellite-To-Facility-Esrange_Station_ESC_Access.csv

"Access","Start Time (UTCG)","Stop Time (UTCG)","Duration (sec)"
1,1 Mar 2023 01:09:41.866,1 Mar 2023 01:20:23.369,641.503
2,1 Mar 2023 02:42:49.052,1 Mar 2023 02:52:06.052,557.000
3,1 Mar 2023 04:15:18.271,1 Mar 2023 04:23:37.480,499.210
4,1 Mar 2023 05:46:59.662,1 Mar 2023 05:55:48.751,529.089
5,1 Mar 2023 07:18:31.594,1 Mar 2023 07:28:45.219,613.625
6,1 Mar 2023 08:50:49.703,1 Mar 2023 09:02:04.866,675.163
7,1 Mar 2023 10:24:32.580,1 Mar 2023 10:35:29.919,657.339
8,1 Mar 2023 12:00:13.344,1 Mar 2023 12:08:41.486,508.142
9,1 Mar 2023 20:03:49.073,1 Mar 2023 20:08:21.499,272.426
10,1 Mar 2023 21:36:17.257,1 Mar 2023 21:45:59.124,581.867
11,1 Mar 2023 23:09:36.943,1 Mar 2023 23:20:52.684,675.741
12,2 Mar 2023 00:43:01.791,2 Mar 2023 00:54:01.504,659.713
13,2 Mar 2023 02:16:15.520,2 Mar 2023 02:25:57.594,582.074
14,2 Mar 2023 03:48:57.954,2 Mar 2023 03:57:26.116,508.162
15,2 Mar 2023 05:20:51.349,2 Mar 2023 05:29:23.027,511.677
16,2 Mar 2023 06:52:19.929,2 Mar 2023 07:02:08.604,588.675
17,2 Mar 2023 08:24:20.119,2 Mar 2023 08:35:23.750,663.631
18,2 Mar 2023 09:57:35.631,2 Mar 2023 10:08:48.800,673.170
19,2 Mar 2023 11:32:38.373,2 Mar 2023 11:42:07.222,568.849
20,2 Mar 2023 13:10:37.802,2 Mar 2023 13:14:22.383,224.580
21,2 Mar 2023 21:09:41.972,2 Mar 2023 21:18:27.616,525.643
22,2 Mar 2023 22:42:55.671,2 Mar 2023 22:53:58.062,662.391
23,3 Mar 2023 00:16:20.847,3 Mar 2023 00:27:33.605,672.758
24,3 Mar 2023 01:49:39.469,3 Mar 2023 01:59:46.751,607.282
25,3 Mar 2023 03:22:33.305,3 Mar 2023 03:31:17.346,524.041
26,3 Mar 2023 04:54:40.778,3 Mar 2023 05:03:01.565,500.788
27,3 Mar 2023 06:26:10.983,3 Mar 2023 06:35:34.361,563.378
28,3 Mar 2023 07:57:56.768,3 Mar 2023 08:08:43.412,646.645
29,3 Mar 2023 09:30:47.355,3 Mar 2023 09:42:07.240,679.885
30,3 Mar 2023 11:05:15.962,3 Mar 2023 11:15:29.686,613.725
31,3 Mar 2023 12:42:06.371,3 Mar 2023 12:48:20.294,373.923
32,3 Mar 2023 20:43:11.637,3 Mar 2023 20:50:41.655,450.018
33,3 Mar 2023 22:16:15.183,3 Mar 2023 22:26:54.208,639.024
34,3 Mar 2023 23:49:39.379,4 Mar 2023 00:00:58.919,679.540
35,4 Mar 2023 01:23:01.453,4 Mar 2023 01:33:32.289,630.837
36,4 Mar 2023 02:56:04.688,4 Mar 2023 03:05:09.811,545.123
37,4 Mar 2023 04:28:26.791,4 Mar 2023 04:36:44.469,497.678
38,4 Mar 2023 06:00:03.397,4 Mar 2023 06:09:03.074,539.677
39,4 Mar 2023 07:31:38.824,4 Mar 2023 07:42:04.233,625.409
40,4 Mar 2023 09:04:07.061,4 Mar 2023 09:15:25.602,678.542
41,4 Mar 2023 10:38:04.528,4 Mar 2023 10:48:50.160,645.633
42,4 Mar 2023 12:14:06.316,4 Mar 2023 12:21:56.686,470.370
43,4 Mar 2023 20:16:51.193,4 Mar 2023 20:22:36.074,344.881
44,4 Mar 2023 21:49:36.046,4 Mar 2023 21:59:40.247,604.201
45,4 Mar 2023 23:22:57.724,4 Mar 2023 23:34:16.769,679.046
46,5 Mar 2023 00:56:21.960,5 Mar 2023 01:07:13.131,651.171
47,5 Mar 2023 02:29:32.636,5 Mar 2023 02:39:02.025,569.388
48,5 Mar 2023 04:02:08.663,5 Mar 2023 04:10:31.384,502.721
49,5 Mar 2023 05:33:55.705,5 Mar 2023 05:42:35.361,519.656
50,5 Mar 2023 07:05:25.341,5 Mar 2023 07:15:26.640,601.299
51,5 Mar 2023 08:37:34.077,5 Mar 2023 08:48:44.228,670.151
52,5 Mar 2023 10:11:02.966,5 Mar 2023 10:22:09.439,666.474
53,5 Mar 2023 11:46:24.139,5 Mar 2023 11:55:24.880,540.741
54,5 Mar 2023 13:25:39.725,5 Mar 2023 13:26:40.925,61.200
55,5 Mar 2023 19:51:01.871,5 Mar 2023 19:53:49.491,167.620
56,5 Mar 2023 21:22:59.148,5 Mar 2023 21:32:14.994,555.846
57,5 Mar 2023 22:56:16.232,5 Mar 2023 23:07:26.469,670.238
58,6 Mar 2023 00:29:41.398,6 Mar 2023 00:40:48.349,666.951
59,6 Mar 2023 02:02:57.771,6 Mar 2023 02:12:52.540,594.769
60,6 Mar 2023 03:35:46.153,6 Mar 2023 03:44:21.471,515.318
61,6 Mar 2023 05:07:46.431,6 Mar 2023 05:16:11.734,505.303
62,6 Mar 2023 06:39:15.195,6 Mar 2023 06:48:51.136,575.941
63,6 Mar 2023 08:11:07.708,6 Mar 2023 08:22:03.457,655.749
64,6 Mar 2023 09:44:10.450,6 Mar 2023 09:55:28.044,677.595
65,6 Mar 2023 11:18:55.703,6 Mar 2023 11:28:48.767,593.064
66,6 Mar 2023 12:56:16.194,6 Mar 2023 13:01:25.980,309.787
67,6 Mar 2023 20:56:25.971,6 Mar 2023 21:04:36.660,490.689
68,6 Mar 2023 22:29:35.286,6 Mar 2023 22:40:27.332,652.046
69,7 Mar 2023 00:03:00.148,7 Mar 2023 00:14:17.149,677.002
70,7 Mar 2023 01:36:20.676,7 Mar 2023 01:46:40.038,619.362
71,7 Mar 2023 03:09:19.460,7 Mar 2023 03:18:13.504,534.043
72,7 Mar 2023 04:41:34.268,7 Mar 2023 04:49:52.468,498.200
73,7 Mar 2023 06:13:07.113,7 Mar 2023 06:22:18.299,551.186
74,7 Mar 2023 07:44:47.170,7 Mar 2023 07:55:23.642,636.472
75,7 Mar 2023 09:17:26.249,7 Mar 2023 09:28:46.401,680.152
76,7 Mar 2023 10:51:38.942,7 Mar 2023 11:02:10.114,631.172
77,7 Mar 2023 12:28:03.659,7 Mar 2023 12:35:09.938,426.279
78,7 Mar 2023 20:29:59.601,7 Mar 2023 20:36:41.893,402.292
79,7 Mar 2023 22:02:55.387,7 Mar 2023 22:13:18.554,623.167
80,7 Mar 2023 23:36:18.546,7 Mar 2023 23:47:38.816,680.270
81,8 Mar 2023 01:09:41.863,8 Mar 2023 01:20:23.349,641.486
82,8 Mar 2023 02:42:49.054,8 Mar 2023 02:52:06.032,556.977
83,8 Mar 2023 04:15:18.271,8 Mar 2023 04:23:37.452,499.182
84,8 Mar 2023 05:46:59.660,8 Mar 2023 05:55:48.728,529.067
85,8 Mar 2023 07:18:31.588,8 Mar 2023 07:28:45.198,613.610
86,8 Mar 2023 08:50:49.692,8 Mar 2023 09:02:04.851,675.159
87,8 Mar 2023 10:24:32.562,8 Mar 2023 10:35:29.907,657.345
88,8 Mar 2023 12:00:13.317,8 Mar 2023 12:08:41.491,508.174
89,8 Mar 2023 20:03:49.017,8 Mar 2023 20:08:21.523,272.506
90,8 Mar 2023 21:36:17.232,8 Mar 2023 21:45:59.119,581.887
91,8 Mar 2023 23:09:36.927,8 Mar 2023 23:20:52.672,675.745
92,9 Mar 2023 00:43:01.782,9 Mar 2023 00:54:01.488,659.706
93,9 Mar 2023 02:16:15.518,9 Mar 2023 02:25:57.572,582.054
94,9 Mar 2023 03:48:57.957,9 Mar 2023 03:57:26.089,508.132
95,9 Mar 2023 05:20:51.352,9 Mar 2023 05:29:22.998,511.647
96,9 Mar 2023 06:52:19.925,9 Mar 2023 07:02:08.582,588.656
97,9 Mar 2023 08:24:20.109,9 Mar 2023 08:35:23.734,663.625
98,9 Mar 2023 09:57:35.616,9 Mar 2023 10:08:48.791,673.175
99,9 Mar 2023 11:32:38.350,9 Mar 2023 11:42:07.222,568.872
100,9 Mar 2023 13:10:37.738,9 Mar 2023 13:14:22.426,224.688
101,9 Mar 2023 21:09:41.944,9 Mar 2023 21:18:27.615,525.671
102,9 Mar 2023 22:42:55.653,9 Mar 2023 22:53:58.053,662.399
103,10 Mar 2023 00:16:20.837,10 Mar 2023 00:27:33.591,672.754
104,10 Mar 2023 01:49:39.465,10 Mar 2023 01:59:46.731,607.266
105,10 Mar 2023 03:22:33.308,10 Mar 2023 03:31:17.321,524.013
106,10 Mar 2023 04:54:40.782,10 Mar 2023 05:03:01.538,500.756
107,10 Mar 2023 06:26:10.982,10 Mar 2023 06:35:34.337,563.355
108,10 Mar 2023 07:57:56.760,10 Mar 2023 08:08:43.395,646.634
109,10 Mar 2023 09:30:47.343,10 Mar 2023 09:42:07.230,679.887
110,10 Mar 2023 11:05:15.942,10 Mar 2023 11:15:29.685,613.742
111,10 Mar 2023 12:42:06.332,10 Mar 2023 12:48:20.313,373.980
112,10 Mar 2023 20:43:11.602,10 Mar 2023 20:50:41.661,450.058
113,10 Mar 2023 22:16:15.163,10 Mar 2023 22:26:54.201,639.037
114,10 Mar 2023 23:49:39.367,11 Mar 2023 00:00:58.907,679.540
115,11 Mar 2023 01:23:01.448,11 Mar 2023 01:33:32.272,630.824
116,11 Mar 2023 02:56:04.690,11 Mar 2023 03:05:09.787,545.097
117,11 Mar 2023 04:28:26.796,11 Mar 2023 04:36:44.441,497.645
118,11 Mar 2023 06:00:03.399,11 Mar 2023 06:09:03.049,539.650
119,11 Mar 2023 07:31:38.819,11 Mar 2023 07:42:04.214,625.395
120,11 Mar 2023 09:04:07.050,11 Mar 2023 09:15:25.590,678.540
121,11 Mar 2023 10:38:04.511,11 Mar 2023 10:48:50.156,645.645
122,11 Mar 2023 12:14:06.286,11 Mar 2023 12:21:56.698,470.411
123,11 Mar 2023 20:16:51.147,11 Mar 2023 20:22:36.091,344.945
124,11 Mar 2023 21:49:36.023,11 Mar 2023 21:59:40.243,604.220
125,11 Mar 2023 23:22:57.710,11 Mar 2023 23:34:16.759,679.048
126,12 Mar 2023 00:56:21.954,12 Mar 2023 01:07:13.115,651.161
127,12 Mar 2023 02:29:32.637,12 Mar 2023 02:39:02.003,569.366
128,12 Mar 2023 04:02:08.668,12 Mar 2023 04:10:31.356,502.688
129,12 Mar 2023 05:33:55.709,12 Mar 2023 05:42:35.334,519.625
130,12 Mar 2023 07:05:25.339,12 Mar 2023 07:15:26.619,601.281
131,12 Mar 2023 08:37:34.069,12 Mar 2023 08:48:44.214,670.146
132,12 Mar 2023 10:11:02.951,12 Mar 2023 10:22:09.433,666.482
133,12 Mar 2023 11:46:24.114,12 Mar 2023 11:55:24.885,540.771
134,12 Mar 2023 13:25:39.487,12 Mar 2023 13:26:41.144,61.657
135,12 Mar 2023 19:51:01.778,12 Mar 2023 19:53:49.554,167.776
136,12 Mar 2023 21:22:59.121,12 Mar 2023 21:32:14.994,555.872
137,12 Mar 2023 22:56:16.216,12 Mar 2023 23:07:26.461,670.245
138,13 Mar 2023 00:29:41.390,13 Mar 2023 00:40:48.335,666.945
139,13 Mar 2023 02:02:57.770,13 Mar 2023 02:12:52.520,594.750
140,13 Mar 2023 03:35:46.159,13 Mar 2023 03:44:21.445,515.286
141,13 Mar 2023 05:07:46.437,13 Mar 2023 05:16:11.706,505.269
142,13 Mar 2023 06:39:15.195,13 Mar 2023 06:48:51.113,575.918
143,13 Mar 2023 08:11:07.701,13 Mar 2023 08:22:03.441,655.740
144,13 Mar 2023 09:44:10.437,13 Mar 2023 09:55:28.036,677.599
145,13 Mar 2023 11:18:55.682,13 Mar 2023 11:28:48.769,593.086
146,13 Mar 2023 12:56:16.144,13 Mar 2023 13:01:26.012,309.868
147,13 Mar 2023 20:56:25.938,13 Mar 2023 21:04:36.665,490.727
148,13 Mar 2023 22:29:35.268,13 Mar 2023 22:40:27.325,652.058
149,14 Mar 2023 00:03:00.138,14 Mar 2023 00:14:17.137,676.999
150,14 Mar 2023 01:36:20.674,14 Mar 2023 01:46:40.020,619.346
151,14 Mar 2023 03:09:19.465,14 Mar 2023 03:18:13.478,534.014
152,14 Mar 2023 04:41:34.275,14 Mar 2023 04:49:52.439,498.164
153,14 Mar 2023 06:13:07.115,14 Mar 2023 06:22:18.273,551.159
154,14 Mar 2023 07:44:47.165,14 Mar 2023 07:55:23.624,636.459
155,14 Mar 2023 09:17:26.238,14 Mar 2023 09:28:46.390,680.152
156,14 Mar 2023 10:51:38.924,14 Mar 2023 11:02:10.112,631.188
157,14 Mar 2023 12:28:03.624,14 Mar 2023 12:35:09.955,426.331
158,14 Mar 2023 20:29:59.559,14 Mar 2023 20:36:41.906,402.346
159,14 Mar 2023 22:02:55.365,14 Mar 2023 22:13:18.549,623.184
160,14 Mar 2023 23:36:18.533,14 Mar 2023 23:47:38.804,680.271
161,15 Mar 2023 01:09:41.858,15 Mar 2023 01:20:23.332,641.474
162,15 Mar 2023 02:42:49.057,15 Mar 2023 02:52:06.008,556.951
163,15 Mar 2023 04:15:18.278,15 Mar 2023 04:23:37.423,499.146
164,15 Mar 2023 05:46:59.664,15 Mar 2023 05:55:48.700,529.036
165,15 Mar 2023 07:18:31.585,15 Mar 2023 07:28:45.178,613.593
166,15 Mar 2023 08:50:49.683,15 Mar 2023 09:02:04.838,675.156
167,15 Mar 2023 10:24:32.546,15 Mar 2023 10:35:29.902,657.356
168,15 Mar 2023 12:00:13.289,15 Mar 2023 12:08:41.500,508.211
169,15 Mar 2023 20:03:48.955,15 Mar 2023 20:08:21.555,272.600
170,15 Mar 2023 21:36:17.206,15 Mar 2023 21:45:59.117,581.911
171,15 Mar 2023 23:09:36.912,15 Mar 2023 23:20:52.662,675.750
172,16 Mar 2023 00:43:01.774,16 Mar 2023 00:54:01.472,659.698
173,16 Mar 2023 02:16:15.518,16 Mar 2023 02:25:57.550,582.032
174,16 Mar 2023 03:48:57.964,16 Mar 2023 03:57:26.061,508.097
175,16 Mar 2023 05:20:51.357,16 Mar 2023 05:29:22.969,511.612
176,16 Mar 2023 06:52:19.924,16 Mar 2023 07:02:08.559,588.634
177,16 Mar 2023 08:24:20.102,16 Mar 2023 08:35:23.719,663.617
178,16 Mar 2023 09:57:35.602,16 Mar 2023 10:08:48.784,673.182
179,16 Mar 2023 11:32:38.327,16 Mar 2023 11:42:07.226,568.900
180,16 Mar 2023 13:10:37.667,16 Mar 2023 13:14:22.480,224.813
181,16 Mar 2023 21:09:41.913,16 Mar 2023 21:18:27.617,525.704
182,16 Mar 2023 22:42:55.636,16 Mar 2023 22:53:58.045,662.409
183,17 Mar 2023 00:16:20.827,17 Mar 2023 00:27:33.577,672.749
184,17 Mar 2023 01:49:39.464,17 Mar 2023 01:59:46.711,607.248
185,17 Mar 2023 03:22:33.313,17 Mar 2023 03:31:17.294,523.982
186,17 Mar 2023 04:54:40.788,17 Mar 2023 05:03:01.508,500.720
187,17 Mar 2023 06:26:10.983,17 Mar 2023 06:35:34.312,563.329
188,17 Mar 2023 07:57:56.755,17 Mar 2023 08:08:43.377,646.623
189,17 Mar 2023 09:30:47.330,17 Mar 2023 09:42:07.220,679.889
190,17 Mar 2023 11:05:15.923,17 Mar 2023 11:15:29.684,613.762
191,17 Mar 2023 12:42:06.291,17 Mar 2023 12:48:20.336,374.045
192,17 Mar 2023 20:43:11.565,17 Mar 2023 20:50:41.668,450.103
193,17 Mar 2023 22:16:15.143,17 Mar 2023 22:26:54.195,639.052
194,17 Mar 2023 23:49:39.356,18 Mar 2023 00:00:58.895,679.539
195,18 Mar 2023 01:23:01.444,18 Mar 2023 01:33:32.254,630.810
196,18 Mar 2023 02:56:04.693,18 Mar 2023 03:05:09.762,545.069
197,18 Mar 2023 04:28:26.803,18 Mar 2023 04:36:44.412,497.609
198,18 Mar 2023 06:00:03.402,18 Mar 2023 06:09:03.023,539.621
199,18 Mar 2023 07:31:38.815,18 Mar 2023 07:42:04.194,625.379
200,18 Mar 2023 09:04:07.040,18 Mar 2023 09:15:25.578,678.539
201,18 Mar 2023 10:38:04.494,18 Mar 2023 10:48:50.153,645.659
202,18 Mar 2023 12:14:06.256,18 Mar 2023 12:21:56.711,470.456
203,18 Mar 2023 20:16:51.098,18 Mar 2023 20:22:36.111,345.012
204,18 Mar 2023 21:49:36.000,18 Mar 2023 21:59:40.240,604.240
205,18 Mar 2023 23:22:57.697,18 Mar 2023 23:34:16.748,679.052
206,19 Mar 2023 00:56:21.948,19 Mar 2023 01:07:13.099,651.151
207,19 Mar 2023 02:29:32.638,19 Mar 2023 02:39:01.980,569.342
208,19 Mar 2023 04:02:08.675,19 Mar 2023 04:10:31.328,502.653
209,19 Mar 2023 05:33:55.714,19 Mar 2023 05:42:35.307,519.593
210,19 Mar 2023 07:05:25.337,19 Mar 2023 07:15:26.598,601.262
211,19 Mar 2023 08:37:34.061,19 Mar 2023 08:48:44.201,670.140
212,19 Mar 2023 10:11:02.937,19 Mar 2023 10:22:09.427,666.490
213,19 Mar 2023 11:46:24.090,19 Mar 2023 11:55:24.891,540.801
214,19 Mar 2023 13:25:39.247,19 Mar 2023 13:26:41.367,62.120
215,19 Mar 2023 19:51:01.685,19 Mar 2023 19:53:49.619,167.934
216,19 Mar 2023 21:22:59.095,19 Mar 2023 21:32:14.994,555.899
217,19 Mar 2023 22:56:16.200,19 Mar 2023 23:07:26.452,670.252
218,20 Mar 2023 00:29:41.382,20 Mar 2023 00:40:48.321,666.939
219,20 Mar 2023 02:02:57.770,20 Mar 2023 02:12:52.500,594.731
220,20 Mar 2023 03:35:46.164,20 Mar 2023 03:44:21.419,515.254
221,20 Mar 2023 05:07:46.443,20 Mar 2023 05:16:11.679,505.235
222,20 Mar 2023 06:39:15.196,20 Mar 2023 06:48:51.091,575.895
223,20 Mar 2023 08:11:07.695,20 Mar 2023 08:22:03.425,655.731
224,20 Mar 2023 09:44:10.425,20 Mar 2023 09:55:28.028,677.603
225,20 Mar 2023 11:18:55.663,20 Mar 2023 11:28:48.771,593.108
226,20 Mar 2023 12:56:16.096,20 Mar 2023 13:01:26.044,309.948
227,20 Mar 2023 20:56:25.907,20 Mar 2023 21:04:36.670,490.763
228,20 Mar 2023 22:29:35.250,20 Mar 2023 22:40:27.319,652.069
229,21 Mar 2023 00:03:00.128,21 Mar 2023 00:14:17.125,676.997
230,21 Mar 2023 01:36:20.672,21 Mar 2023 01:46:40.002,619.331
231,21 Mar 2023 03:09:19.469,21 Mar 2023 03:18:13.455,533.985
232,21 Mar 2023 04:41:34.282,21 Mar 2023 04:49:52.412,498.130
233,21 Mar 2023 06:13:07.118,21 Mar 2023 06:22:18.250,551.132
234,21 Mar 2023 07:44:47.161,21 Mar 2023 07:55:23.607,636.446
235,21 Mar 2023 09:17:26.229,21 Mar 2023 09:28:46.381,680.152
236,21 Mar 2023 10:51:38.908,21 Mar 2023 11:02:10.112,631.204
237,21 Mar 2023 12:28:03.592,21 Mar 2023 12:35:09.972,426.380
238,21 Mar 2023 20:29:59.521,21 Mar 2023 20:36:41.920,402.399
239,21 Mar 2023 22:02:55.345,21 Mar 2023 22:13:18.546,623.201
240,21 Mar 2023 23:36:18.523,21 Mar 2023 23:47:38.795,680.272
241,22 Mar 2023 01:09:41.855,22 Mar 2023 01:20:23.317,641.462
242,22 Mar 2023 02:42:49.061,22 Mar 2023 02:52:05.987,556.926
243,22 Mar 2023 04:15:18.286,22 Mar 2023 04:23:37.397,499.111
244,22 Mar 2023 05:46:59.670,22 Mar 2023 05:55:48.676,529.006
245,22 Mar 2023 07:18:31.584,22 Mar 2023 07:28:45.160,613.576
246,22 Mar 2023 08:50:49.675,22 Mar 2023 09:02:04.828,675.152
247,22 Mar 2023 10:24:32.532,22 Mar 2023 10:35:29.899,657.367
248,22 Mar 2023 12:00:13.265,22 Mar 2023 12:08:41.511,508.246
249,22 Mar 2023 20:03:48.897,22 Mar 2023 20:08:21.589,272.691
250,22 Mar 2023 21:36:17.184,22 Mar 2023 21:45:59.118,581.934
251,22 Mar 2023 23:09:36.900,22 Mar 2023 23:20:52.655,675.755
252,23 Mar 2023 00:43:01.770,23 Mar 2023 00:54:01.460,659.690
253,23 Mar 2023 02:16:15.521,23 Mar 2023 02:25:57.531,582.010
254,23 Mar 2023 03:48:57.972,23 Mar 2023 03:57:26.036,508.064
255,23 Mar 2023 05:20:51.365,23 Mar 2023 05:29:22.944,511.579
256,23 Mar 2023 06:52:19.926,23 Mar 2023 07:02:08.539,588.613
257,23 Mar 2023 08:24:20.097,23 Mar 2023 08:35:23.707,663.610
258,23 Mar 2023 09:57:35.591,23 Mar 2023 10:08:48.780,673.188
259,23 Mar 2023 11:32:38.308,23 Mar 2023 11:42:07.233,568.925
260,23 Mar 2023 13:10:37.602,23 Mar 2023 13:14:22.533,224.932
261,23 Mar 2023 21:09:41.887,23 Mar 2023 21:18:27.622,525.736
262,23 Mar 2023 22:42:55.622,23 Mar 2023 22:53:58.040,662.418
263,24 Mar 2023 00:16:20.822,24 Mar 2023 00:27:33.567,672.745
264,24 Mar 2023 01:49:39.465,24 Mar 2023 01:59:46.695,607.229
265,24 Mar 2023 03:22:33.321,24 Mar 2023 03:31:17.271,523.950
266,24 Mar 2023 04:54:40.798,24 Mar 2023 05:03:01.483,500.684
267,24 Mar 2023 06:26:10.988,24 Mar 2023 06:35:34.291,563.303
268,24 Mar 2023 07:57:56.752,24 Mar 2023 08:08:43.364,646.611
269,24 Mar 2023 09:30:47.322,24 Mar 2023 09:42:07.214,679.892
270,24 Mar 2023 11:05:15.907,24 Mar 2023 11:15:29.688,613.781
271,24 Mar 2023 12:42:06.254,24 Mar 2023 12:48:20.362,374.108
272,24 Mar 2023 20:43:11.532,24 Mar 2023 20:50:41.681,450.149
273,24 Mar 2023 22:16:15.127,24 Mar 2023 22:26:54.193,639.066
274,24 Mar 2023 23:49:39.348,25 Mar 2023 00:00:58.887,679.538
275,25 Mar 2023 01:23:01.444,25 Mar 2023 01:33:32.240,630.796
276,25 Mar 2023 02:56:04.701,25 Mar 2023 03:05:09.741,545.041
277,25 Mar 2023 04:28:26.814,25 Mar 2023 04:36:44.386,497.572
278,25 Mar 2023 06:00:03.409,25 Mar 2023 06:09:03.000,539.591
279,25 Mar 2023 07:31:38.815,25 Mar 2023 07:42:04.179,625.363
280,25 Mar 2023 09:04:07.034,25 Mar 2023 09:15:25.570,678.537
281,25 Mar 2023 10:38:04.481,25 Mar 2023 10:48:50.154,645.673
282,25 Mar 2023 12:14:06.229,25 Mar 2023 12:21:56.730,470.501
283,25 Mar 2023 20:16:51.052,25 Mar 2023 20:22:36.137,345.085
284,25 Mar 2023 21:49:35.980,25 Mar 2023 21:59:40.241,604.261
285,25 Mar 2023 23:22:57.687,25 Mar 2023 23:34:16.742,679.055
286,26 Mar 2023 00:56:21.947,26 Mar 2023 01:07:13.087,651.140
287,26 Mar 2023 02:29:32.645,26 Mar 2023 02:39:01.961,569.316
288,26 Mar 2023 04:02:08.687,26 Mar 2023 04:10:31.303,502.616
289,26 Mar 2023 05:33:55.723,26 Mar 2023 05:42:35.283,519.559
290,26 Mar 2023 07:05:25.339,26 Mar 2023 07:15:26.580,601.241
291,26 Mar 2023 08:37:34.057,26 Mar 2023 08:48:44.191,670.134
292,26 Mar 2023 10:11:02.926,26 Mar 2023 10:22:09.426,666.500
293,26 Mar 2023 11:46:24.069,26 Mar 2023 11:55:24.903,540.834
294,26 Mar 2023 13:25:38.996,26 Mar 2023 13:26:41.610,62.615
295,26 Mar 2023 19:51:01.587,26 Mar 2023 19:53:49.697,168.110
296,26 Mar 2023 21:22:59.070,26 Mar 2023 21:32:14.999,555.929
297,26 Mar 2023 22:56:16.189,26 Mar 2023 23:07:26.448,670.260
298,27 Mar 2023 00:29:41.379,27 Mar 2023 00:40:48.311,666.932
299,27 Mar 2023 02:02:57.775,27 Mar 2023 02:12:52.483,594.709
300,27 Mar 2023 03:35:46.176,27 Mar 2023 03:44:21.395,515.219
301,27 Mar 2023 05:07:46.455,27 Mar 2023 05:16:11.653,505.198
302,27 Mar 2023 06:39:15.201,27 Mar 2023 06:48:51.071,575.870
303,27 Mar 2023 08:11:07.693,27 Mar 2023 08:22:03.413,655.720
304,27 Mar 2023 09:44:10.417,27 Mar 2023 09:55:28.024,677.608
305,27 Mar 2023 11:18:55.646,27 Mar 2023 11:28:48.778,593.133
306,27 Mar 2023 12:56:16.048,27 Mar 2023 13:01:26.085,310.036
307,27 Mar 2023 20:56:25.876,27 Mar 2023 21:04:36.681,490.805
308,27 Mar 2023 22:29:35.235,27 Mar 2023 22:40:27.317,652.082
309,28 Mar 2023 00:03:00.123,28 Mar 2023 00:14:17.117,676.994
310,28 Mar 2023 01:36:20.674,28 Mar 2023 01:46:39.987,619.313
311,28 Mar 2023 03:09:19.480,28 Mar 2023 03:18:13.432,533.952
312,28 Mar 2023 04:41:34.295,28 Mar 2023 04:49:52.385,498.090
313,28 Mar 2023 06:13:07.125,28 Mar 2023 06:22:18.228,551.102
314,28 Mar 2023 07:44:47.162,28 Mar 2023 07:55:23.592,636.431
315,28 Mar 2023 09:17:26.222,28 Mar 2023 09:28:46.375,680.153
316,28 Mar 2023 10:51:38.894,28 Mar 2023 11:02:10.116,631.221
317,28 Mar 2023 12:28:03.560,28 Mar 2023 12:35:09.996,426.436
318,28 Mar 2023 20:29:59.480,28 Mar 2023 20:36:41.940,402.460
319,28 Mar 2023 22:02:55.327,28 Mar 2023 22:13:18.547,623.220
320,28 Mar 2023 23:36:18.515,28 Mar 2023 23:47:38.788,680.274
321,29 Mar 2023 01:09:41.855,29 Mar 2023 01:20:23.304,641.449
322,29 Mar 2023 02:42:49.069,29 Mar 2023 02:52:05.966,556.897
323,29 Mar 2023 04:15:18.299,29 Mar 2023 04:23:37.371,499.072
324,29 Mar 2023 05:46:59.680,29 Mar 2023 05:55:48.652,528.972
325,29 Mar 2023 07:18:31.586,29 Mar 2023 07:28:45.143,613.557
326,29 Mar 2023 08:50:49.671,29 Mar 2023 09:02:04.819,675.148
327,29 Mar 2023 10:24:32.521,29 Mar 2023 10:35:29.900,657.379
328,29 Mar 2023 12:00:13.241,29 Mar 2023 12:08:41.526,508.285
329,29 Mar 2023 20:03:48.835,29 Mar 2023 20:08:21.631,272.796
330,29 Mar 2023 21:36:17.162,29 Mar 2023 21:45:59.122,581.960
331,29 Mar 2023 23:09:36.890,29 Mar 2023 23:20:52.651,675.761
332,30 Mar 2023 00:43:01.768,30 Mar 2023 00:54:01.449,659.680
333,30 Mar 2023 02:16:15.527,30 Mar 2023 02:25:57.513,581.985
334,30 Mar 2023 03:48:57.985,30 Mar 2023 03:57:26.011,508.026
335,30 Mar 2023 05:20:51.377,30 Mar 2023 05:29:22.918,511.542
336,30 Mar 2023 06:52:19.931,30 Mar 2023 07:02:08.520,588.590
337,30 Mar 2023 08:24:20.094,30 Mar 2023 08:35:23.696,663.601
338,30 Mar 2023 09:57:35.582,30 Mar 2023 10:08:48.777,673.195
339,30 Mar 2023 11:32:38.289,30 Mar 2023 11:42:07.243,568.954
340,30 Mar 2023 13:10:37.532,30 Mar 2023 13:14:22.596,225.064
341,30 Mar 2023 21:09:41.859,30 Mar 2023 21:18:27.631,525.771
342,30 Mar 2023 22:42:55.609,30 Mar 2023 22:53:58.037,662.429
343,31 Mar 2023 00:16:20.818,31 Mar 2023 00:27:33.558,672.740
344,31 Mar 2023 01:49:39.469,31 Mar 2023 01:59:46.679,607.210
345,31 Mar 2023 03:22:33.332,31 Mar 2023 03:31:17.248,523.916
346,31 Mar 2023 04:54:40.811,31 Mar 2023 05:03:01.457,500.646
347,31 Mar 2023 06:26:10.994,31 Mar 2023 06:35:34.270,563.276
348,31 Mar 2023 07:57:56.751,31 Mar 2023 08:08:43.351,646.599
349,31 Mar 2023 09:30:47.315,31 Mar 2023 09:42:07.209,679.894
350,31 Mar 2023 11:05:15.892,31 Mar 2023 11:15:29.694,613.802
351,31 Mar 2023 12:42:06.217,31 Mar 2023 12:48:20.393,374.176
352,31 Mar 2023 20:43:11.498,31 Mar 2023 20:50:41.696,450.198
353,31 Mar 2023 22:16:15.111,31 Mar 2023 22:26:54.193,639.082
354,31 Mar 2023 23:49:39.342,1 Apr 2023 00:00:00.000,620.658

